$GPGGA,072034.000,4705.5053,N,01524.1690,E,1,05,2.2,423.0,M,42.5,M,,0000*54
$GPGGA,072034.200,4705.5053,N,01524.1690,E,1,05,2.2,423.0,M,42.5,M,,0000*56
$GPGGA,072034.400,4705.5053,N,01524.1690,E,1,05,2.2,423.0,M,42.5,M,,0000*50
$GPGGA,072034.600,4705.5053,N,01524.1690,E,1,05,2.2,423.0,M,42.5,M,,0000*52
$GPGGA,072034.800,4705.5053,N,01524.1690,E,1,05,2.2,423.0,M,42.5,M,,0000*5C
$GPGGA,072035.000,4705.5053,N,01524.1690,E,1,05,2.2,423.0,M,42.5,M,,0000*55
$GPGGA,072035.200,4705.5053,N,01524.1690,E,1,05,2.2,423.0,M,42.5,M,,0000*57
$GPGGA,072035.400,4705.5053,N,01524.1690,E,1,05,2.2,423.0,M,42.5,M,,0000*51
$GPGGA,072035.600,4705.5053,N,01524.1690,E,1,05,2.2,423.0,M,42.5,M,,0000*53
$GPGGA,072035.800,4705.5053,N,01524.1690,E,1,05,2.2,423.0,M,42.5,M,,0000*5D
$GPGGA,072036.000,4705.5053,N,01524.1690,E,1,05,2.2,423.0,M,42.5,M,,0000*56
$GPGGA,072036.200,4705.5053,N,01524.1690,E,1,05,2.2,423.0,M,42.5,M,,0000*54
$GPGGA,072036.400,4705.5053,N,01524.1690,E,1,05,2.2,423.0,M,42.5,M,,0000*52
$GPGGA,072036.600,4705.5053,N,01524.1690,E,1,05,2.2,423.0,M,42.5,M,,0000*50
$GPGGA,072036.800,4705.5053,N,01524.1690,E,1,05,2.2,423.0,M,42.5,M,,0000*5E
$GPGGA,072037.000,4705.5053,N,01524.1690,E,1,05,2.2,423.0,M,42.5,M,,0000*57
$GPGGA,072037.200,4705.5053,N,01524.1690,E,1,05,2.2,423.0,M,42.5,M,,0000*55
$GPGGA,072037.400,4705.5053,N,01524.1690,E,1,05,2.2,423.0,M,42.5,M,,0000*53
$GPGGA,072037.600,4705.5053,N,01524.1690,E,1,05,2.2,423.0,M,42.5,M,,0000*51
$GPGGA,072037.800,4705.5057,N,01524.1688,E,1,05,2.2,422.3,M,42.5,M,,0000*50
$GPGGA,072038.000,4705.5059,N,01524.1686,E,1,05,2.2,421.9,M,42.5,M,,0000*5E
$GPGGA,072038.200,4705.5061,N,01524.1685,E,1,05,2.2,421.6,M,42.5,M,,0000*5B
$GPGGA,072038.400,4705.5063,N,01524.1683,E,1,05,2.2,421.4,M,42.5,M,,0000*5B
$GPGGA,072038.600,4705.5065,N,01524.1682,E,1,05,2.2,421.2,M,42.5,M,,0000*58
$GPGGA,072038.800,4705.5065,N,01524.1682,E,1,05,2.2,421.2,M,42.5,M,,0000*56
$GPGGA,072039.000,4705.5065,N,01524.1682,E,1,05,2.2,421.2,M,42.5,M,,0000*5F
$GPGGA,072039.200,4705.5065,N,01524.1682,E,1,05,2.2,421.2,M,42.5,M,,0000*5D
$GPGGA,072039.400,4705.5065,N,01524.1682,E,1,05,2.2,421.2,M,42.5,M,,0000*5B
$GPGGA,072039.600,4705.5065,N,01524.1682,E,1,05,2.2,421.2,M,42.5,M,,0000*59
$GPGGA,072039.800,4705.5065,N,01524.1682,E,1,05,2.2,421.2,M,42.5,M,,0000*57
$GPGGA,072040.000,4705.5065,N,01524.1682,E,1,05,2.2,421.2,M,42.5,M,,0000*51
$GPGGA,072040.200,4705.5065,N,01524.1682,E,1,05,2.2,421.2,M,42.5,M,,0000*53
$GPGGA,072040.400,4705.5065,N,01524.1682,E,1,05,2.2,421.2,M,42.5,M,,0000*55
$GPGGA,072040.600,4705.5065,N,01524.1682,E,1,05,2.2,421.2,M,42.5,M,,0000*57
$GPGGA,072040.800,4705.5065,N,01524.1682,E,1,05,2.2,421.2,M,42.5,M,,0000*59
$GPGGA,072041.000,4705.5065,N,01524.1682,E,1,05,2.2,421.2,M,42.5,M,,0000*50
$GPGGA,072041.200,4705.5065,N,01524.1682,E,1,05,2.2,421.2,M,42.5,M,,0000*52
$GPGGA,072041.400,4705.5065,N,01524.1682,E,1,05,2.2,421.2,M,42.5,M,,0000*54
$GPGGA,072041.600,4705.5065,N,01524.1682,E,1,05,2.2,421.2,M,42.5,M,,0000*56
$GPGGA,072041.800,4705.5065,N,01524.1682,E,1,05,2.2,421.2,M,42.5,M,,0000*58
$GPGGA,072042.000,4705.5065,N,01524.1682,E,1,05,2.2,421.2,M,42.5,M,,0000*53
$GPGGA,072042.200,4705.5068,N,01524.1680,E,1,05,2.2,420.6,M,42.5,M,,0000*5B
$GPGGA,072042.400,4705.5070,N,01524.1679,E,1,05,2.2,420.3,M,42.5,M,,0000*57
$GPGGA,072042.600,4705.5073,N,01524.1678,E,1,05,2.2,420.1,M,42.5,M,,0000*55
$GPGGA,072042.800,4705.5074,N,01524.1677,E,1,05,2.2,419.9,M,42.5,M,,0000*51
$GPGGA,072043.000,4705.5076,N,01524.1677,E,1,05,2.2,419.8,M,42.5,M,,0000*5B
$GPGGA,072043.200,4705.5078,N,01524.1676,E,1,05,2.2,419.8,M,42.5,M,,0000*56
$GPGGA,072043.400,4705.5079,N,01524.1676,E,1,05,2.2,419.7,M,42.5,M,,0000*5E
$GPGGA,072043.600,4705.5080,N,01524.1675,E,1,05,2.2,419.7,M,42.5,M,,0000*59
$GPGGA,072043.800,4705.5081,N,01524.1674,E,1,05,2.2,419.5,M,42.5,M,,0000*55
$GPGGA,072044.000,4705.5083,N,01524.1674,E,1,05,2.2,419.5,M,42.5,M,,0000*58
$GPGGA,072044.200,4705.5084,N,01524.1672,E,1,05,2.2,419.3,M,42.5,M,,0000*5D
$GPGGA,072044.400,4705.5085,N,01524.1671,E,1,05,2.2,419.2,M,42.5,M,,0000*58
$GPGGA,072044.600,4705.5086,N,01524.1670,E,1,05,2.2,419.1,M,42.5,M,,0000*5B
$GPGGA,072044.800,4705.5087,N,01524.1669,E,1,05,2.2,418.9,M,42.5,M,,0000*55
$GPGGA,072045.000,4705.5088,N,01524.1669,E,1,05,2.2,418.7,M,42.5,M,,0000*5D
$GPGGA,072045.200,4705.5088,N,01524.1668,E,1,05,2.2,418.6,M,42.5,M,,0000*5F
$GPGGA,072045.400,4705.5089,N,01524.1668,E,1,05,2.2,418.5,M,42.5,M,,0000*5B
$GPGGA,072045.600,4705.5089,N,01524.1669,E,1,05,2.2,418.4,M,42.5,M,,0000*59
$GPGGA,072045.800,4705.5090,N,01524.1668,E,1,05,2.2,418.3,M,42.5,M,,0000*59
$GPGGA,072046.000,4705.5091,N,01524.1668,E,1,05,2.2,418.2,M,42.5,M,,0000*52
$GPGGA,072046.200,4705.5091,N,01524.1668,E,1,05,2.2,418.2,M,42.5,M,,0000*50
$GPGGA,072046.400,4705.5091,N,01524.1668,E,1,05,2.2,418.2,M,42.5,M,,0000*56
$GPGGA,072046.600,4705.5091,N,01524.1668,E,1,05,2.2,418.2,M,42.5,M,,0000*54
$GPGGA,072046.800,4705.5091,N,01524.1668,E,1,05,2.2,418.2,M,42.5,M,,0000*5A
$GPGGA,072047.000,4705.5091,N,01524.1668,E,1,05,2.2,418.2,M,42.5,M,,0000*53
$GPGGA,072047.200,4705.5091,N,01524.1668,E,1,05,2.2,418.2,M,42.5,M,,0000*51
$GPGGA,072047.400,4705.5091,N,01524.1668,E,1,05,2.2,418.2,M,42.5,M,,0000*57
$GPGGA,072047.600,4705.5091,N,01524.1668,E,1,05,2.2,418.2,M,42.5,M,,0000*55
$GPGGA,072047.800,4705.5091,N,01524.1668,E,1,05,2.2,418.2,M,42.5,M,,0000*5B
$GPGGA,072048.000,4705.5091,N,01524.1668,E,1,05,2.2,418.2,M,42.5,M,,0000*5C
$GPGGA,072048.200,4705.5091,N,01524.1668,E,1,05,2.2,418.2,M,42.5,M,,0000*5E
$GPGGA,072048.400,4705.5091,N,01524.1668,E,1,05,2.2,418.2,M,42.5,M,,0000*58
$GPGGA,072048.600,4705.5091,N,01524.1668,E,1,05,2.2,418.2,M,42.5,M,,0000*5A
$GPGGA,072048.800,4705.5091,N,01524.1668,E,1,05,2.2,418.2,M,42.5,M,,0000*54
$GPGGA,072049.000,4705.5091,N,01524.1668,E,1,05,2.2,418.2,M,42.5,M,,0000*5D
$GPGGA,072049.200,4705.5091,N,01524.1668,E,1,05,2.2,418.2,M,42.5,M,,0000*5F
$GPGGA,072049.400,4705.5095,N,01524.1665,E,1,05,2.2,417.4,M,42.5,M,,0000*59
$GPGGA,072049.600,4705.5097,N,01524.1664,E,1,05,2.2,417.0,M,42.5,M,,0000*5C
$GPGGA,072049.800,4705.5100,N,01524.1663,E,1,05,2.2,416.7,M,42.5,M,,0000*5C
$GPGGA,072050.000,4705.5101,N,01524.1662,E,1,05,2.2,416.5,M,42.5,M,,0000*5E
$GPGGA,072050.200,4705.5103,N,01524.1661,E,1,05,2.2,416.4,M,42.5,M,,0000*5C
$GPGGA,072050.400,4705.5105,N,01524.1660,E,1,05,2.2,416.3,M,42.5,M,,0000*5A
$GPGGA,072050.600,4705.5106,N,01524.1659,E,1,05,2.2,416.1,M,42.5,M,,0000*53
$GPGGA,072050.800,4705.5108,N,01524.1659,E,1,05,2.2,416.1,M,42.5,M,,0000*53
$GPGGA,072051.000,4705.5109,N,01524.1659,E,1,05,2.2,416.1,M,42.5,M,,0000*5B
$GPGGA,072051.200,4705.5110,N,01524.1659,E,1,05,2.2,416.0,M,42.5,M,,0000*50
$GPGGA,072051.400,4705.5111,N,01524.1660,E,1,05,2.2,416.0,M,42.5,M,,0000*5D
$GPGGA,072051.600,4705.5112,N,01524.1660,E,1,05,2.2,415.9,M,42.5,M,,0000*56
$GPGGA,072051.800,4705.5113,N,01524.1660,E,1,05,2.2,415.8,M,42.5,M,,0000*58
$GPGGA,072052.000,4705.5114,N,01524.1660,E,1,05,2.2,415.7,M,42.5,M,,0000*5B
$GPGGA,072052.200,4705.5115,N,01524.1661,E,1,05,2.2,415.5,M,42.5,M,,0000*5B
$GPGGA,072052.400,4705.5115,N,01524.1662,E,1,05,2.2,415.4,M,42.5,M,,0000*5F
$GPGGA,072052.600,4705.5116,N,01524.1663,E,1,05,2.2,415.3,M,42.5,M,,0000*58
$GPGGA,072052.800,4705.5117,N,01524.1664,E,1,05,2.2,415.2,M,42.5,M,,0000*51
$GPGGA,072053.000,4705.5117,N,01524.1664,E,1,05,2.2,415.1,M,42.5,M,,0000*5B
$GPGGA,072053.200,4705.5118,N,01524.1665,E,1,05,2.2,415.0,M,42.5,M,,0000*56
$GPGGA,072053.400,4705.5118,N,01524.1665,E,1,05,2.2,415.0,M,42.5,M,,0000*50
$GPGGA,072053.600,4705.5118,N,01524.1665,E,1,05,2.2,415.0,M,42.5,M,,0000*52
$GPGGA,072053.800,4705.5118,N,01524.1665,E,1,05,2.2,415.0,M,42.5,M,,0000*5C
$GPGGA,072054.000,4705.5119,N,01524.1666,E,1,05,2.2,414.8,M,42.5,M,,0000*58
$GPGGA,072054.200,4705.5119,N,01524.1667,E,1,05,2.2,414.7,M,42.5,M,,0000*54
$GPGGA,072054.400,4705.5120,N,01524.1668,E,1,05,2.2,414.6,M,42.5,M,,0000*56
$GPGGA,072054.600,4705.5121,N,01524.1670,E,1,05,2.2,414.8,M,42.5,M,,0000*52
$GPGGA,072054.800,4705.5121,N,01524.1672,E,1,05,2.2,414.8,M,42.5,M,,0000*5E
$GPGGA,072055.000,4705.5122,N,01524.1674,E,1,05,2.2,414.6,M,42.5,M,,0000*5C
$GPGGA,072055.200,4705.5125,N,01524.1681,E,1,06,1.5,414.8,M,42.5,M,,0000*5A
$GPGGA,072055.400,4705.5128,N,01524.1689,E,1,06,1.5,414.9,M,42.5,M,,0000*58
$GPGGA,072055.600,4705.5130,N,01524.1696,E,1,06,1.5,415.0,M,42.5,M,,0000*55
$GPGGA,072055.800,4705.5132,N,01524.1703,E,1,06,1.5,415.1,M,42.5,M,,0000*55
$GPGGA,072056.000,4705.5133,N,01524.1709,E,1,06,1.5,415.1,M,42.5,M,,0000*55
$GPGGA,072056.200,4705.5135,N,01524.1715,E,1,06,1.5,415.1,M,42.5,M,,0000*5C
$GPGGA,072056.400,4705.5137,N,01524.1721,E,1,06,1.5,415.0,M,42.5,M,,0000*5E
$GPGGA,072056.600,4705.5138,N,01524.1727,E,1,06,1.5,415.0,M,42.5,M,,0000*55
$GPGGA,072056.800,4705.5140,N,01524.1733,E,1,06,1.5,414.9,M,42.5,M,,0000*59
$GPGGA,072057.000,4705.5141,N,01524.1738,E,1,06,1.5,414.9,M,42.5,M,,0000*5A
$GPGGA,072057.200,4705.5143,N,01524.1743,E,1,06,1.5,414.8,M,42.5,M,,0000*57
$GPGGA,072057.400,4705.5144,N,01524.1748,E,1,06,1.5,414.7,M,42.5,M,,0000*52
$GPGGA,072057.600,4705.5145,N,01524.1753,E,1,06,1.5,414.6,M,42.5,M,,0000*5A
$GPGGA,072057.800,4705.5146,N,01524.1758,E,1,06,1.5,414.5,M,42.5,M,,0000*5F
$GPGGA,072058.000,4705.5147,N,01524.1763,E,1,06,1.5,414.4,M,42.5,M,,0000*50
$GPGGA,072058.200,4705.5147,N,01524.1767,E,1,06,1.5,414.3,M,42.5,M,,0000*51
$GPGGA,072058.400,4705.5148,N,01524.1772,E,1,06,1.5,414.3,M,42.5,M,,0000*5C
$GPGGA,072058.600,4705.5148,N,01524.1777,E,1,06,1.5,414.2,M,42.5,M,,0000*5A
$GPGGA,072058.800,4705.5149,N,01524.1780,E,1,06,1.5,414.1,M,42.5,M,,0000*5E
$GPGGA,072059.000,4705.5150,N,01524.1784,E,1,06,1.5,414.0,M,42.5,M,,0000*5A
$GPGGA,072059.200,4705.5150,N,01524.1788,E,1,06,1.5,414.0,M,42.5,M,,0000*54
$GPGGA,072059.400,4705.5151,N,01524.1791,E,1,06,1.5,413.9,M,42.5,M,,0000*55
$GPGGA,072059.600,4705.5152,N,01524.1795,E,1,06,1.5,413.8,M,42.5,M,,0000*51
$GPGGA,072059.800,4705.5153,N,01524.1799,E,1,06,1.5,413.8,M,42.5,M,,0000*52
$GPGGA,072100.000,4705.5153,N,01524.1803,E,1,06,1.5,413.7,M,42.5,M,,0000*54
$GPGGA,072100.200,4705.5154,N,01524.1806,E,1,06,1.5,413.6,M,42.5,M,,0000*55
$GPGGA,072100.400,4705.5154,N,01524.1809,E,1,06,1.5,413.6,M,42.5,M,,0000*5C
$GPGGA,072100.600,4705.5155,N,01524.1812,E,1,06,1.5,413.5,M,42.5,M,,0000*56
$GPGGA,072100.800,4705.5155,N,01524.1816,E,1,06,1.5,413.5,M,42.5,M,,0000*5C
$GPGGA,072101.000,4705.5155,N,01524.1819,E,1,06,1.5,413.4,M,42.5,M,,0000*5B
$GPGGA,072101.200,4705.5156,N,01524.1822,E,1,06,1.5,413.4,M,42.5,M,,0000*52
$GPGGA,072101.400,4705.5156,N,01524.1824,E,1,06,1.5,413.3,M,42.5,M,,0000*55
$GPGGA,072101.600,4705.5157,N,01524.1827,E,1,06,1.5,413.3,M,42.5,M,,0000*55
$GPGGA,072101.800,4705.5157,N,01524.1830,E,1,06,1.5,413.2,M,42.5,M,,0000*5C
$GPGGA,072102.000,4705.5157,N,01524.1832,E,1,06,1.5,413.2,M,42.5,M,,0000*55
$GPGGA,072102.200,4705.5157,N,01524.1834,E,1,06,1.5,413.2,M,42.5,M,,0000*51
$GPGGA,072102.400,4705.5158,N,01524.1836,E,1,06,1.5,413.1,M,42.5,M,,0000*59
$GPGGA,072102.600,4705.5158,N,01524.1838,E,1,06,1.5,413.1,M,42.5,M,,0000*55
$GPGGA,072102.800,4705.5158,N,01524.1840,E,1,06,1.5,413.1,M,42.5,M,,0000*54
$GPGGA,072103.000,4705.5158,N,01524.1842,E,1,06,1.5,413.0,M,42.5,M,,0000*5E
$GPGGA,072103.200,4705.5159,N,01524.1844,E,1,06,1.5,413.0,M,42.5,M,,0000*5B
$GPGGA,072103.400,4705.5159,N,01524.1845,E,1,06,1.5,413.0,M,42.5,M,,0000*5C
$GPGGA,072103.600,4705.5159,N,01524.1847,E,1,06,1.5,413.0,M,42.5,M,,0000*5C
$GPGGA,072103.800,4705.5159,N,01524.1848,E,1,06,1.5,412.9,M,42.5,M,,0000*55
$GPGGA,072104.000,4705.5159,N,01524.1850,E,1,06,1.5,412.9,M,42.5,M,,0000*53
$GPGGA,072104.200,4705.5160,N,01524.1851,E,1,06,1.5,412.9,M,42.5,M,,0000*5A
$GPGGA,072104.400,4705.5160,N,01524.1852,E,1,06,1.5,412.9,M,42.5,M,,0000*5F
$GPGGA,072104.600,4705.5160,N,01524.1853,E,1,06,1.5,412.8,M,42.5,M,,0000*5D
$GPGGA,072104.800,4705.5160,N,01524.1854,E,1,06,1.5,412.8,M,42.5,M,,0000*54
$GPGGA,072105.000,4705.5161,N,01524.1855,E,1,06,1.5,412.8,M,42.5,M,,0000*5D
$GPGGA,072105.200,4705.5161,N,01524.1856,E,1,06,1.5,412.8,M,42.5,M,,0000*5C
$GPGGA,072105.400,4705.5161,N,01524.1857,E,1,06,1.5,412.8,M,42.5,M,,0000*5B
$GPGGA,072105.600,4705.5162,N,01524.1857,E,1,06,1.5,412.8,M,42.5,M,,0000*5A
$GPGGA,072105.800,4705.5162,N,01524.1859,E,1,06,1.5,412.8,M,42.5,M,,0000*5A
$GPGGA,072106.000,4705.5162,N,01524.1860,E,1,06,1.5,412.8,M,42.5,M,,0000*5B
$GPGGA,072106.200,4705.5162,N,01524.1862,E,1,06,1.5,412.8,M,42.5,M,,0000*5B
$GPGGA,072106.400,4705.5161,N,01524.1863,E,1,06,1.5,412.8,M,42.5,M,,0000*5F
$GPGGA,072106.600,4705.5161,N,01524.1865,E,1,06,1.5,412.8,M,42.5,M,,0000*5B
$GPGGA,072106.800,4705.5161,N,01524.1866,E,1,06,1.5,412.8,M,42.5,M,,0000*56
$GPGGA,072107.000,4705.5161,N,01524.1867,E,1,06,1.5,412.9,M,42.5,M,,0000*5F
$GPGGA,072107.200,4705.5161,N,01524.1869,E,1,06,1.5,412.9,M,42.5,M,,0000*53
$GPGGA,072107.400,4705.5161,N,01524.1870,E,1,06,1.5,412.9,M,42.5,M,,0000*5D
$GPGGA,072107.600,4705.5161,N,01524.1871,E,1,06,1.5,412.9,M,42.5,M,,0000*5E
$GPGGA,072107.800,4705.5161,N,01524.1872,E,1,06,1.5,413.0,M,42.5,M,,0000*5B
$GPGGA,072108.000,4705.5161,N,01524.1873,E,1,06,1.5,413.0,M,42.5,M,,0000*5D
$GPGGA,072108.200,4705.5161,N,01524.1873,E,1,06,1.5,413.0,M,42.5,M,,0000*5F
$GPGGA,072108.400,4705.5161,N,01524.1873,E,1,06,1.5,413.0,M,42.5,M,,0000*59
$GPGGA,072108.600,4705.5161,N,01524.1873,E,1,06,1.5,413.0,M,42.5,M,,0000*5B
$GPGGA,072108.800,4705.5161,N,01524.1873,E,1,06,1.5,413.0,M,42.5,M,,0000*55
$GPGGA,072109.000,4705.5161,N,01524.1873,E,1,06,1.5,413.0,M,42.5,M,,0000*5C
$GPGGA,072109.200,4705.5161,N,01524.1873,E,1,06,1.5,413.0,M,42.5,M,,0000*5E
$GPGGA,072109.400,4705.5161,N,01524.1873,E,1,06,1.5,413.0,M,42.5,M,,0000*58
$GPGGA,072109.600,4705.5161,N,01524.1873,E,1,06,1.5,413.0,M,42.5,M,,0000*5A
$GPGGA,072109.800,4705.5161,N,01524.1873,E,1,06,1.5,413.0,M,42.5,M,,0000*54
$GPGGA,072110.000,4705.5161,N,01524.1873,E,1,06,1.5,413.0,M,42.5,M,,0000*54
$GPGGA,072110.200,4705.5161,N,01524.1873,E,1,06,1.5,413.0,M,42.5,M,,0000*56
$GPGGA,072110.400,4705.5161,N,01524.1875,E,1,06,1.5,413.3,M,42.5,M,,0000*55
$GPGGA,072110.600,4705.5160,N,01524.1878,E,1,06,1.5,413.4,M,42.5,M,,0000*5C
$GPGGA,072110.800,4705.5160,N,01524.1879,E,1,06,1.5,413.5,M,42.5,M,,0000*52
$GPGGA,072111.000,4705.5160,N,01524.1881,E,1,06,1.5,413.6,M,42.5,M,,0000*5F
$GPGGA,072111.200,4705.5160,N,01524.1882,E,1,06,1.5,413.7,M,42.5,M,,0000*5F
$GPGGA,072111.400,4705.5160,N,01524.1884,E,1,06,1.5,413.8,M,42.5,M,,0000*50
$GPGGA,072111.600,4705.5160,N,01524.1886,E,1,06,1.5,413.8,M,42.5,M,,0000*50
$GPGGA,072111.800,4705.5160,N,01524.1887,E,1,06,1.5,413.9,M,42.5,M,,0000*5E
$GPGGA,072112.000,4705.5160,N,01524.1889,E,1,06,1.5,414.0,M,42.5,M,,0000*55
$GPGGA,072112.200,4705.5160,N,01524.1890,E,1,06,1.5,414.0,M,42.5,M,,0000*5F
$GPGGA,072112.400,4705.5160,N,01524.1891,E,1,06,1.5,414.1,M,42.5,M,,0000*59
$GPGGA,072112.600,4705.5160,N,01524.1892,E,1,06,1.5,414.1,M,42.5,M,,0000*58
$GPGGA,072112.800,4705.5160,N,01524.1892,E,1,06,1.5,414.1,M,42.5,M,,0000*56
$GPGGA,072113.000,4705.5160,N,01524.1892,E,1,06,1.5,414.1,M,42.5,M,,0000*5F
$GPGGA,072113.200,4705.5160,N,01524.1892,E,1,06,1.5,414.1,M,42.5,M,,0000*5D
$GPGGA,072113.400,4705.5160,N,01524.1892,E,1,06,1.5,414.1,M,42.5,M,,0000*5B
$GPGGA,072113.600,4705.5160,N,01524.1892,E,1,06,1.5,414.1,M,42.5,M,,0000*59
$GPGGA,072113.800,4705.5160,N,01524.1892,E,1,06,1.5,414.1,M,42.5,M,,0000*57
$GPGGA,072114.000,4705.5160,N,01524.1892,E,1,06,1.5,414.1,M,42.5,M,,0000*58
$GPGGA,072114.200,4705.5160,N,01524.1892,E,1,06,1.5,414.1,M,42.5,M,,0000*5A
$GPGGA,072114.400,4705.5160,N,01524.1892,E,1,06,1.5,414.1,M,42.5,M,,0000*5C
$GPGGA,072114.600,4705.5160,N,01524.1892,E,1,06,1.5,414.1,M,42.5,M,,0000*5E
$GPGGA,072114.800,4705.5160,N,01524.1892,E,1,06,1.5,414.1,M,42.5,M,,0000*50
$GPGGA,072115.000,4705.5160,N,01524.1892,E,1,06,1.5,414.1,M,42.5,M,,0000*59
$GPGGA,072115.200,4705.5160,N,01524.1892,E,1,06,1.5,414.1,M,42.5,M,,0000*5B
$GPGGA,072115.400,4705.5160,N,01524.1892,E,1,06,1.5,414.1,M,42.5,M,,0000*5D
$GPGGA,072115.600,4705.5160,N,01524.1892,E,1,06,1.5,414.1,M,42.5,M,,0000*5F
$GPGGA,072115.800,4705.5160,N,01524.1892,E,1,06,1.5,414.1,M,42.5,M,,0000*51
$GPGGA,072116.000,4705.5160,N,01524.1892,E,1,06,1.5,414.1,M,42.5,M,,0000*5A
$GPGGA,072116.200,4705.5160,N,01524.1892,E,1,06,1.5,414.1,M,42.5,M,,0000*58
$GPGGA,072116.400,4705.5160,N,01524.1892,E,1,06,1.5,414.1,M,42.5,M,,0000*5E
$GPGGA,072116.600,4705.5160,N,01524.1892,E,1,06,1.5,414.1,M,42.5,M,,0000*5C
$GPGGA,072116.800,4705.5160,N,01524.1892,E,1,06,1.5,414.1,M,42.5,M,,0000*52
$GPGGA,072117.000,4705.5160,N,01524.1892,E,1,06,1.5,414.1,M,42.5,M,,0000*5B
$GPGGA,072117.200,4705.5160,N,01524.1892,E,1,06,1.5,414.1,M,42.5,M,,0000*59
$GPGGA,072117.400,4705.5160,N,01524.1892,E,1,06,1.5,414.1,M,42.5,M,,0000*5F
$GPGGA,072117.600,4705.5160,N,01524.1892,E,1,06,1.5,414.1,M,42.5,M,,0000*5D
$GPGGA,072117.800,4705.5160,N,01524.1893,E,1,06,1.5,414.3,M,42.5,M,,0000*50
$GPGGA,072118.000,4705.5160,N,01524.1895,E,1,06,1.5,414.4,M,42.5,M,,0000*56
$GPGGA,072118.200,4705.5160,N,01524.1896,E,1,06,1.5,414.5,M,42.5,M,,0000*56
$GPGGA,072118.400,4705.5159,N,01524.1897,E,1,06,1.5,414.6,M,42.5,M,,0000*58
$GPGGA,072118.600,4705.5159,N,01524.1898,E,1,06,1.5,414.7,M,42.5,M,,0000*54
$GPGGA,072118.800,4705.5159,N,01524.1899,E,1,06,1.5,414.7,M,42.5,M,,0000*5B
$GPGGA,072119.000,4705.5159,N,01524.1900,E,1,06,1.5,414.8,M,42.5,M,,0000*5C
$GPGGA,072119.200,4705.5159,N,01524.1901,E,1,06,1.5,414.8,M,42.5,M,,0000*5F
$GPGGA,072119.400,4705.5159,N,01524.1902,E,1,06,1.5,414.9,M,42.5,M,,0000*5B
$GPGGA,072119.600,4705.5159,N,01524.1902,E,1,06,1.5,415.0,M,42.5,M,,0000*51
$GPGGA,072119.800,4705.5159,N,01524.1903,E,1,06,1.5,415.0,M,42.5,M,,0000*5E
$GPGGA,072120.000,4705.5160,N,01524.1904,E,1,06,1.5,415.0,M,42.5,M,,0000*51
$GPGGA,072120.200,4705.5160,N,01524.1905,E,1,06,1.5,415.0,M,42.5,M,,0000*52
$GPGGA,072120.400,4705.5160,N,01524.1906,E,1,06,1.5,415.1,M,42.5,M,,0000*56
$GPGGA,072120.600,4705.5160,N,01524.1906,E,1,06,1.5,415.1,M,42.5,M,,0000*54
$GPGGA,072120.800,4705.5160,N,01524.1907,E,1,06,1.5,415.1,M,42.5,M,,0000*5B
$GPGGA,072121.000,4705.5161,N,01524.1907,E,1,06,1.5,415.2,M,42.5,M,,0000*50
$GPGGA,072121.200,4705.5161,N,01524.1908,E,1,06,1.5,415.2,M,42.5,M,,0000*5D
$GPGGA,072121.400,4705.5161,N,01524.1908,E,1,06,1.5,415.2,M,42.5,M,,0000*5B
$GPGGA,072121.600,4705.5162,N,01524.1908,E,1,06,1.5,415.2,M,42.5,M,,0000*5A
$GPGGA,072121.800,4705.5162,N,01524.1908,E,1,06,1.5,415.2,M,42.5,M,,0000*54
$GPGGA,072122.000,4705.5162,N,01524.1908,E,1,06,1.5,415.2,M,42.5,M,,0000*5F
$GPGGA,072122.200,4705.5162,N,01524.1908,E,1,06,1.5,415.2,M,42.5,M,,0000*5D
$GPGGA,072122.400,4705.5163,N,01524.1909,E,1,06,1.5,415.2,M,42.5,M,,0000*5B
$GPGGA,072122.600,4705.5163,N,01524.1909,E,1,06,1.5,415.2,M,42.5,M,,0000*59
$GPGGA,072122.800,4705.5163,N,01524.1909,E,1,06,1.5,415.2,M,42.5,M,,0000*57
$GPGGA,072123.000,4705.5164,N,01524.1910,E,1,06,1.5,415.2,M,42.5,M,,0000*51
$GPGGA,072123.200,4705.5164,N,01524.1910,E,1,06,1.5,415.3,M,42.5,M,,0000*52
$GPGGA,072123.400,4705.5165,N,01524.1910,E,1,06,1.5,415.3,M,42.5,M,,0000*55
$GPGGA,072123.600,4705.5165,N,01524.1910,E,1,06,1.5,415.3,M,42.5,M,,0000*57
$GPGGA,072123.800,4705.5165,N,01524.1910,E,1,06,1.5,415.3,M,42.5,M,,0000*59
$GPGGA,072124.000,4705.5166,N,01524.1910,E,1,06,1.5,415.3,M,42.5,M,,0000*55
$GPGGA,072124.200,4705.5166,N,01524.1910,E,1,06,1.5,415.3,M,42.5,M,,0000*57
$GPGGA,072124.400,4705.5166,N,01524.1910,E,1,06,1.5,415.3,M,42.5,M,,0000*51
$GPGGA,072124.600,4705.5166,N,01524.1910,E,1,06,1.5,415.3,M,42.5,M,,0000*53
$GPGGA,072124.800,4705.5166,N,01524.1910,E,1,06,1.5,415.3,M,42.5,M,,0000*5D
$GPGGA,072125.000,4705.5166,N,01524.1910,E,1,06,1.5,415.3,M,42.5,M,,0000*54
$GPGGA,072125.200,4705.5166,N,01524.1910,E,1,06,1.5,415.3,M,42.5,M,,0000*56
$GPGGA,072125.400,4705.5166,N,01524.1910,E,1,06,1.5,415.3,M,42.5,M,,0000*50
$GPGGA,072125.600,4705.5166,N,01524.1910,E,1,06,1.5,415.3,M,42.5,M,,0000*52
$GPGGA,072125.800,4705.5166,N,01524.1910,E,1,06,1.5,415.3,M,42.5,M,,0000*5C
$GPGGA,072126.000,4705.5166,N,01524.1910,E,1,06,1.5,415.3,M,42.5,M,,0000*57
$GPGGA,072126.200,4705.5166,N,01524.1910,E,1,06,1.5,415.3,M,42.5,M,,0000*55
$GPGGA,072126.400,4705.5168,N,01524.1910,E,1,06,1.5,415.4,M,42.5,M,,0000*5A
$GPGGA,072126.600,4705.5168,N,01524.1909,E,1,06,1.5,415.5,M,42.5,M,,0000*51
$GPGGA,072126.800,4705.5169,N,01524.1908,E,1,06,1.5,415.5,M,42.5,M,,0000*5F
$GPGGA,072127.000,4705.5170,N,01524.1907,E,1,06,1.5,415.5,M,42.5,M,,0000*51
$GPGGA,072127.200,4705.5170,N,01524.1907,E,1,06,1.5,415.5,M,42.5,M,,0000*53
$GPGGA,072127.400,4705.5170,N,01524.1906,E,1,06,1.5,415.5,M,42.5,M,,0000*54
$GPGGA,072127.600,4705.5171,N,01524.1905,E,1,06,1.5,415.5,M,42.5,M,,0000*54
$GPGGA,072127.800,4705.5171,N,01524.1904,E,1,06,1.5,415.5,M,42.5,M,,0000*5B
$GPGGA,072128.000,4705.5171,N,01524.1904,E,1,06,1.5,415.5,M,42.5,M,,0000*5C
$GPGGA,072128.200,4705.5172,N,01524.1904,E,1,06,1.5,415.6,M,42.5,M,,0000*5E
$GPGGA,072128.400,4705.5172,N,01524.1903,E,1,06,1.5,415.6,M,42.5,M,,0000*5F
$GPGGA,072128.600,4705.5172,N,01524.1903,E,1,06,1.5,415.6,M,42.5,M,,0000*5D
$GPGGA,072128.800,4705.5173,N,01524.1903,E,1,06,1.5,415.6,M,42.5,M,,0000*52
$GPGGA,072129.000,4705.5173,N,01524.1903,E,1,06,1.5,415.6,M,42.5,M,,0000*5B
$GPGGA,072129.200,4705.5173,N,01524.1902,E,1,06,1.5,415.6,M,42.5,M,,0000*58
$GPGGA,072129.400,4705.5174,N,01524.1902,E,1,06,1.5,415.6,M,42.5,M,,0000*59
$GPGGA,072129.600,4705.5174,N,01524.1902,E,1,06,1.5,415.6,M,42.5,M,,0000*5B
$GPGGA,072129.800,4705.5174,N,01524.1902,E,1,06,1.5,415.6,M,42.5,M,,0000*55
$GPGGA,072130.000,4705.5175,N,01524.1902,E,1,06,1.5,415.6,M,42.5,M,,0000*54
$GPGGA,072130.200,4705.5175,N,01524.1902,E,1,06,1.5,415.6,M,42.5,M,,0000*56
$GPGGA,072130.400,4705.5175,N,01524.1902,E,1,06,1.5,415.6,M,42.5,M,,0000*50
$GPGGA,072130.600,4705.5176,N,01524.1902,E,1,06,1.5,415.6,M,42.5,M,,0000*51
$GPGGA,072130.800,4705.5176,N,01524.1902,E,1,06,1.5,415.6,M,42.5,M,,0000*5F
$GPGGA,072131.000,4705.5176,N,01524.1902,E,1,06,1.5,415.6,M,42.5,M,,0000*56
$GPGGA,072131.200,4705.5177,N,01524.1901,E,1,06,1.5,415.6,M,42.5,M,,0000*56
$GPGGA,072131.400,4705.5177,N,01524.1902,E,1,06,1.5,415.6,M,42.5,M,,0000*53
$GPGGA,072131.600,4705.5177,N,01524.1902,E,1,06,1.5,415.6,M,42.5,M,,0000*51
$GPGGA,072131.800,4705.5178,N,01524.1902,E,1,06,1.5,415.6,M,42.5,M,,0000*50
$GPGGA,072132.000,4705.5178,N,01524.1902,E,1,06,1.5,415.6,M,42.5,M,,0000*5B
$GPGGA,072132.200,4705.5178,N,01524.1902,E,1,06,1.5,415.6,M,42.5,M,,0000*59
$GPGGA,072132.400,4705.5179,N,01524.1902,E,1,06,1.5,415.6,M,42.5,M,,0000*5E
$GPGGA,072132.600,4705.5179,N,01524.1902,E,1,06,1.5,415.5,M,42.5,M,,0000*5F
$GPGGA,072132.800,4705.5179,N,01524.1902,E,1,06,1.5,415.5,M,42.5,M,,0000*51
$GPGGA,072133.000,4705.5179,N,01524.1902,E,1,06,1.5,415.5,M,42.5,M,,0000*58
$GPGGA,072133.200,4705.5179,N,01524.1902,E,1,06,1.5,415.5,M,42.5,M,,0000*5A
$GPGGA,072133.400,4705.5179,N,01524.1902,E,1,06,1.5,415.5,M,42.5,M,,0000*5C
$GPGGA,072133.600,4705.5179,N,01524.1902,E,1,06,1.5,415.5,M,42.5,M,,0000*5E
$GPGGA,072133.800,4705.5179,N,01524.1902,E,1,06,1.5,415.5,M,42.5,M,,0000*50
$GPGGA,072134.000,4705.5179,N,01524.1902,E,1,06,1.5,415.5,M,42.5,M,,0000*5F
$GPGGA,072134.200,4705.5179,N,01524.1902,E,1,06,1.5,415.5,M,42.5,M,,0000*5D
$GPGGA,072134.400,4705.5179,N,01524.1902,E,1,06,1.5,415.5,M,42.5,M,,0000*5B
$GPGGA,072134.600,4705.5179,N,01524.1902,E,1,06,1.5,415.5,M,42.5,M,,0000*59
$GPGGA,072134.800,4705.5179,N,01524.1902,E,1,06,1.5,415.5,M,42.5,M,,0000*57
$GPGGA,072135.000,4705.5179,N,01524.1902,E,1,06,1.5,415.5,M,42.5,M,,0000*5E
$GPGGA,072135.200,4705.5179,N,01524.1902,E,1,06,1.5,415.5,M,42.5,M,,0000*5C
$GPGGA,072135.400,4705.5179,N,01524.1902,E,1,06,1.5,415.5,M,42.5,M,,0000*5A
$GPGGA,072135.600,4705.5179,N,01524.1902,E,1,06,1.5,415.5,M,42.5,M,,0000*58
$GPGGA,072135.800,4705.5179,N,01524.1902,E,1,06,1.5,415.5,M,42.5,M,,0000*56
$GPGGA,072136.000,4705.5179,N,01524.1902,E,1,06,1.5,415.5,M,42.5,M,,0000*5D
$GPGGA,072136.200,4705.5179,N,01524.1902,E,1,06,1.5,415.5,M,42.5,M,,0000*5F
$GPGGA,072136.400,4705.5179,N,01524.1902,E,1,06,1.5,415.5,M,42.5,M,,0000*59
$GPGGA,072136.600,4705.5179,N,01524.1902,E,1,06,1.5,415.5,M,42.5,M,,0000*5B
$GPGGA,072136.800,4705.5179,N,01524.1902,E,1,06,1.5,415.5,M,42.5,M,,0000*55
$GPGGA,072137.000,4705.5179,N,01524.1902,E,1,06,1.5,415.5,M,42.5,M,,0000*5C
$GPGGA,072137.200,4705.5179,N,01524.1902,E,1,06,1.5,415.5,M,42.5,M,,0000*5E
$GPGGA,072137.400,4705.5179,N,01524.1902,E,1,06,1.5,415.5,M,42.5,M,,0000*58
$GPGGA,072137.600,4705.5179,N,01524.1902,E,1,06,1.5,415.5,M,42.5,M,,0000*5A
$GPGGA,072137.800,4705.5179,N,01524.1902,E,1,06,1.5,415.5,M,42.5,M,,0000*54
$GPGGA,072138.000,4705.5179,N,01524.1902,E,1,06,1.5,415.5,M,42.5,M,,0000*53
$GPGGA,072138.200,4705.5181,N,01524.1902,E,1,06,1.5,415.5,M,42.5,M,,0000*56
$GPGGA,072138.400,4705.5182,N,01524.1902,E,1,06,1.5,415.6,M,42.5,M,,0000*50
$GPGGA,072138.600,4705.5183,N,01524.1902,E,1,06,1.5,415.6,M,42.5,M,,0000*53
$GPGGA,072138.800,4705.5184,N,01524.1903,E,1,06,1.5,415.6,M,42.5,M,,0000*5B
$GPGGA,072139.000,4705.5185,N,01524.1903,E,1,06,1.5,415.6,M,42.5,M,,0000*53
$GPGGA,072139.200,4705.5186,N,01524.1903,E,1,06,1.5,415.7,M,42.5,M,,0000*53
$GPGGA,072139.400,4705.5187,N,01524.1904,E,1,06,1.5,415.7,M,42.5,M,,0000*53
$GPGGA,072139.600,4705.5187,N,01524.1904,E,1,06,1.5,415.7,M,42.5,M,,0000*51
$GPGGA,072139.800,4705.5188,N,01524.1904,E,1,06,1.5,415.7,M,42.5,M,,0000*50
$GPGGA,072140.000,4705.5188,N,01524.1904,E,1,06,1.5,415.7,M,42.5,M,,0000*56
$GPGGA,072140.200,4705.5188,N,01524.1904,E,1,06,1.5,415.7,M,42.5,M,,0000*54
$GPGGA,072140.400,4705.5188,N,01524.1904,E,1,06,1.5,415.6,M,42.5,M,,0000*53
$GPGGA,072140.600,4705.5189,N,01524.1904,E,1,06,1.5,415.6,M,42.5,M,,0000*50
$GPGGA,072140.800,4705.5189,N,01524.1904,E,1,06,1.5,415.6,M,42.5,M,,0000*5E
$GPGGA,072141.000,4705.5189,N,01524.1903,E,1,06,1.5,415.7,M,42.5,M,,0000*51
$GPGGA,072141.200,4705.5189,N,01524.1903,E,1,06,1.5,415.7,M,42.5,M,,0000*53
$GPGGA,072141.400,4705.5189,N,01524.1903,E,1,06,1.5,415.7,M,42.5,M,,0000*55
$GPGGA,072141.600,4705.5189,N,01524.1903,E,1,06,1.5,415.8,M,42.5,M,,0000*58
$GPGGA,072141.800,4705.5190,N,01524.1903,E,1,06,1.5,415.8,M,42.5,M,,0000*5E
$GPGGA,072142.000,4705.5190,N,01524.1903,E,1,06,1.5,415.8,M,42.5,M,,0000*55
$GPGGA,072142.200,4705.5190,N,01524.1903,E,1,06,1.5,415.9,M,42.5,M,,0000*56
$GPGGA,072142.400,4705.5190,N,01524.1904,E,1,06,1.5,415.9,M,42.5,M,,0000*57
$GPGGA,072142.600,4705.5191,N,01524.1904,E,1,06,1.5,415.9,M,42.5,M,,0000*54
$GPGGA,072142.800,4705.5191,N,01524.1904,E,1,06,1.5,416.0,M,42.5,M,,0000*50
$GPGGA,072143.000,4705.5191,N,01524.1904,E,1,06,1.5,416.0,M,42.5,M,,0000*59
$GPGGA,072143.200,4705.5192,N,01524.1905,E,1,06,1.5,416.0,M,42.5,M,,0000*59
$GPGGA,072143.400,4705.5192,N,01524.1905,E,1,06,1.5,416.1,M,42.5,M,,0000*5E
$GPGGA,072143.600,4705.5192,N,01524.1905,E,1,06,1.5,416.1,M,42.5,M,,0000*5C
$GPGGA,072143.800,4705.5192,N,01524.1906,E,1,06,1.5,416.1,M,42.5,M,,0000*51
$GPGGA,072144.000,4705.5192,N,01524.1906,E,1,06,1.5,416.1,M,42.5,M,,0000*5E
$GPGGA,072144.200,4705.5192,N,01524.1907,E,1,06,1.5,416.1,M,42.5,M,,0000*5D
$GPGGA,072144.400,4705.5193,N,01524.1907,E,1,06,1.5,416.1,M,42.5,M,,0000*5A
$GPGGA,072144.600,4705.5193,N,01524.1908,E,1,06,1.5,416.1,M,42.5,M,,0000*57
$GPGGA,072144.800,4705.5193,N,01524.1908,E,1,06,1.5,416.1,M,42.5,M,,0000*59
$GPGGA,072145.000,4705.5193,N,01524.1908,E,1,06,1.5,416.2,M,42.5,M,,0000*53
$GPGGA,072145.200,4705.5193,N,01524.1908,E,1,06,1.5,416.2,M,42.5,M,,0000*51
$GPGGA,072145.400,4705.5193,N,01524.1908,E,1,06,1.5,416.2,M,42.5,M,,0000*57
$GPGGA,072145.600,4705.5193,N,01524.1909,E,1,06,1.5,416.2,M,42.5,M,,0000*54
$GPGGA,072145.800,4705.5193,N,01524.1909,E,1,06,1.5,416.2,M,42.5,M,,0000*5A
$GPGGA,072146.000,4705.5193,N,01524.1909,E,1,06,1.5,416.2,M,42.5,M,,0000*51
$GPGGA,072146.200,4705.5192,N,01524.1909,E,1,06,1.5,416.2,M,42.5,M,,0000*52
$GPGGA,072146.400,4705.5192,N,01524.1910,E,1,06,1.5,416.2,M,42.5,M,,0000*5C
$GPGGA,072146.600,4705.5192,N,01524.1910,E,1,06,1.5,416.2,M,42.5,M,,0000*5E
$GPGGA,072146.800,4705.5192,N,01524.1910,E,1,06,1.5,416.2,M,42.5,M,,0000*50
$GPGGA,072147.000,4705.5192,N,01524.1910,E,1,06,1.5,416.2,M,42.5,M,,0000*59
$GPGGA,072147.200,4705.5192,N,01524.1910,E,1,06,1.5,416.2,M,42.5,M,,0000*5B
$GPGGA,072147.400,4705.5192,N,01524.1910,E,1,06,1.5,416.2,M,42.5,M,,0000*5D
$GPGGA,072147.600,4705.5192,N,01524.1910,E,1,06,1.5,416.2,M,42.5,M,,0000*5F
$GPGGA,072147.800,4705.5192,N,01524.1910,E,1,06,1.5,416.2,M,42.5,M,,0000*51
$GPGGA,072148.000,4705.5192,N,01524.1910,E,1,06,1.5,416.2,M,42.5,M,,0000*56
$GPGGA,072148.200,4705.5192,N,01524.1910,E,1,06,1.5,416.2,M,42.5,M,,0000*54
$GPGGA,072148.400,4705.5192,N,01524.1910,E,1,06,1.5,416.2,M,42.5,M,,0000*52
$GPGGA,072148.600,4705.5192,N,01524.1910,E,1,06,1.5,416.2,M,42.5,M,,0000*50
$GPGGA,072148.800,4705.5192,N,01524.1910,E,1,06,1.5,416.2,M,42.5,M,,0000*5E
$GPGGA,072149.000,4705.5192,N,01524.1910,E,1,06,1.5,416.2,M,42.5,M,,0000*57
$GPGGA,072149.200,4705.5192,N,01524.1910,E,1,06,1.5,416.2,M,42.5,M,,0000*55
$GPGGA,072149.400,4705.5192,N,01524.1910,E,1,06,1.5,416.2,M,42.5,M,,0000*53
$GPGGA,072149.600,4705.5192,N,01524.1910,E,1,06,1.5,416.2,M,42.5,M,,0000*51
$GPGGA,072149.800,4705.5192,N,01524.1910,E,1,06,1.5,416.2,M,42.5,M,,0000*5F
$GPGGA,072150.000,4705.5192,N,01524.1910,E,1,06,1.5,416.2,M,42.5,M,,0000*5F
$GPGGA,072150.200,4705.5192,N,01524.1910,E,1,06,1.5,416.2,M,42.5,M,,0000*5D
$GPGGA,072150.400,4705.5192,N,01524.1910,E,1,06,1.5,416.2,M,42.5,M,,0000*5B
$GPGGA,072150.600,4705.5192,N,01524.1910,E,1,06,1.5,416.2,M,42.5,M,,0000*59
$GPGGA,072150.800,4705.5192,N,01524.1910,E,1,06,1.5,416.2,M,42.5,M,,0000*57
$GPGGA,072151.000,4705.5192,N,01524.1910,E,1,06,1.5,416.2,M,42.5,M,,0000*5E
$GPGGA,072151.200,4705.5192,N,01524.1910,E,1,06,1.5,416.2,M,42.5,M,,0000*5C
$GPGGA,072151.400,4705.5192,N,01524.1910,E,1,06,1.5,416.2,M,42.5,M,,0000*5A
$GPGGA,072151.600,4705.5192,N,01524.1910,E,1,06,1.5,416.2,M,42.5,M,,0000*58
$GPGGA,072151.800,4705.5192,N,01524.1910,E,1,06,1.5,416.2,M,42.5,M,,0000*56
$GPGGA,072152.000,4705.5191,N,01524.1911,E,1,06,1.5,416.5,M,42.5,M,,0000*58
$GPGGA,072152.200,4705.5190,N,01524.1911,E,1,06,1.5,416.6,M,42.5,M,,0000*58
$GPGGA,072152.400,4705.5189,N,01524.1912,E,1,06,1.5,416.7,M,42.5,M,,0000*54
$GPGGA,072152.600,4705.5188,N,01524.1912,E,1,06,1.5,416.8,M,42.5,M,,0000*58
$GPGGA,072152.800,4705.5188,N,01524.1912,E,1,06,1.5,416.9,M,42.5,M,,0000*57
$GPGGA,072153.000,4705.5187,N,01524.1912,E,1,06,1.5,416.9,M,42.5,M,,0000*51
$GPGGA,072153.200,4705.5186,N,01524.1912,E,1,06,1.5,417.0,M,42.5,M,,0000*5A
$GPGGA,072153.400,4705.5186,N,01524.1912,E,1,06,1.5,417.1,M,42.5,M,,0000*5D
$GPGGA,072153.600,4705.5185,N,01524.1912,E,1,06,1.5,417.1,M,42.5,M,,0000*5C
$GPGGA,072153.800,4705.5185,N,01524.1912,E,1,06,1.5,417.1,M,42.5,M,,0000*52
$GPGGA,072154.000,4705.5185,N,01524.1912,E,1,06,1.5,417.1,M,42.5,M,,0000*5D
$GPGGA,072154.200,4705.5184,N,01524.1912,E,1,06,1.5,417.1,M,42.5,M,,0000*5E
$GPGGA,072154.400,4705.5184,N,01524.1911,E,1,06,1.5,417.2,M,42.5,M,,0000*58
$GPGGA,072154.600,4705.5183,N,01524.1911,E,1,06,1.5,417.2,M,42.5,M,,0000*5D
$GPGGA,072154.800,4705.5183,N,01524.1911,E,1,06,1.5,417.2,M,42.5,M,,0000*53
$GPGGA,072155.000,4705.5183,N,01524.1911,E,1,06,1.5,417.2,M,42.5,M,,0000*5A
$GPGGA,072155.200,4705.5183,N,01524.1910,E,1,06,1.5,417.2,M,42.5,M,,0000*59
$GPGGA,072155.400,4705.5183,N,01524.1910,E,1,06,1.5,417.3,M,42.5,M,,0000*5E
$GPGGA,072155.600,4705.5182,N,01524.1910,E,1,06,1.5,417.3,M,42.5,M,,0000*5D
$GPGGA,072155.800,4705.5182,N,01524.1909,E,1,06,1.5,417.3,M,42.5,M,,0000*5B
$GPGGA,072156.000,4705.5182,N,01524.1909,E,1,06,1.5,417.3,M,42.5,M,,0000*50
$GPGGA,072156.200,4705.5182,N,01524.1909,E,1,06,1.5,417.3,M,42.5,M,,0000*52
$GPGGA,072156.400,4705.5182,N,01524.1909,E,1,06,1.5,417.3,M,42.5,M,,0000*54
$GPGGA,072156.600,4705.5182,N,01524.1909,E,1,06,1.5,417.3,M,42.5,M,,0000*56
$GPGGA,072156.800,4705.5182,N,01524.1909,E,1,06,1.5,417.3,M,42.5,M,,0000*58
$GPGGA,072157.000,4705.5182,N,01524.1909,E,1,06,1.5,417.3,M,42.5,M,,0000*51
$GPGGA,072157.200,4705.5182,N,01524.1909,E,1,06,1.5,417.3,M,42.5,M,,0000*53
$GPGGA,072157.400,4705.5182,N,01524.1909,E,1,06,1.5,417.3,M,42.5,M,,0000*55
$GPGGA,072157.600,4705.5182,N,01524.1909,E,1,06,1.5,417.3,M,42.5,M,,0000*57
$GPGGA,072157.800,4705.5182,N,01524.1909,E,1,06,1.5,417.3,M,42.5,M,,0000*59
$GPGGA,072158.000,4705.5182,N,01524.1909,E,1,06,1.5,417.3,M,42.5,M,,0000*5E
$GPGGA,072158.200,4705.5182,N,01524.1909,E,1,06,1.5,417.3,M,42.5,M,,0000*5C
$GPGGA,072158.400,4705.5182,N,01524.1909,E,1,06,1.5,417.3,M,42.5,M,,0000*5A
$GPGGA,072158.600,4705.5182,N,01524.1909,E,1,06,1.5,417.3,M,42.5,M,,0000*58
$GPGGA,072158.800,4705.5182,N,01524.1909,E,1,06,1.5,417.3,M,42.5,M,,0000*56
$GPGGA,072159.000,4705.5182,N,01524.1909,E,1,06,1.5,417.3,M,42.5,M,,0000*5F
$GPGGA,072159.200,4705.5182,N,01524.1909,E,1,06,1.5,417.3,M,42.5,M,,0000*5D
$GPGGA,072159.400,4705.5182,N,01524.1909,E,1,06,1.5,417.3,M,42.5,M,,0000*5B
$GPGGA,072159.600,4705.5182,N,01524.1909,E,1,06,1.5,417.3,M,42.5,M,,0000*59
$GPGGA,072159.800,4705.5182,N,01524.1909,E,1,06,1.5,417.3,M,42.5,M,,0000*57
$GPGGA,072200.000,4705.5182,N,01524.1909,E,1,06,1.5,417.3,M,42.5,M,,0000*50
$GPGGA,072200.200,4705.5182,N,01524.1909,E,1,06,1.5,417.3,M,42.5,M,,0000*52
$GPGGA,072200.400,4705.5182,N,01524.1909,E,1,06,1.5,417.3,M,42.5,M,,0000*54
$GPGGA,072200.600,4705.5182,N,01524.1909,E,1,06,1.5,417.3,M,42.5,M,,0000*56
$GPGGA,072200.800,4705.5182,N,01524.1909,E,1,06,1.5,417.3,M,42.5,M,,0000*58
$GPGGA,072201.000,4705.5182,N,01524.1909,E,1,06,1.5,417.3,M,42.5,M,,0000*51
$GPGGA,072201.200,4705.5182,N,01524.1909,E,1,06,1.5,417.3,M,42.5,M,,0000*53
$GPGGA,072201.400,4705.5182,N,01524.1909,E,1,06,1.5,417.6,M,42.5,M,,0000*50
$GPGGA,072201.600,4705.5182,N,01524.1909,E,1,06,1.5,417.7,M,42.5,M,,0000*53
$GPGGA,072201.800,4705.5182,N,01524.1909,E,1,06,1.5,417.8,M,42.5,M,,0000*52
$GPGGA,072202.000,4705.5182,N,01524.1908,E,1,06,1.5,417.9,M,42.5,M,,0000*59
$GPGGA,072202.200,4705.5182,N,01524.1908,E,1,06,1.5,417.9,M,42.5,M,,0000*5B
$GPGGA,072202.400,4705.5182,N,01524.1908,E,1,06,1.5,418.0,M,42.5,M,,0000*5B
$GPGGA,072202.600,4705.5181,N,01524.1907,E,1,06,1.5,418.0,M,42.5,M,,0000*55
$GPGGA,072202.800,4705.5181,N,01524.1906,E,1,06,1.5,418.0,M,42.5,M,,0000*5A
$GPGGA,072203.000,4705.5181,N,01524.1906,E,1,06,1.5,418.0,M,42.5,M,,0000*53
$GPGGA,072203.200,4705.5181,N,01524.1905,E,1,06,1.5,418.0,M,42.5,M,,0000*52
$GPGGA,072203.400,4705.5181,N,01524.1905,E,1,06,1.5,418.0,M,42.5,M,,0000*54
$GPGGA,072203.600,4705.5181,N,01524.1904,E,1,05,3.1,417.9,M,42.5,M,,0000*54
$GPGGA,072203.800,4705.5180,N,01524.1903,E,1,05,3.1,418.0,M,42.5,M,,0000*5A
$GPGGA,072204.000,4705.5180,N,01524.1903,E,1,05,3.1,418.0,M,42.5,M,,0000*55
$GPGGA,072204.200,4705.5180,N,01524.1902,E,1,05,3.1,418.0,M,42.5,M,,0000*56
$GPGGA,072204.400,4705.5180,N,01524.1901,E,1,05,3.1,418.0,M,42.5,M,,0000*53
$GPGGA,072204.600,4705.5180,N,01524.1900,E,1,05,3.1,418.0,M,42.5,M,,0000*50
$GPGGA,072204.800,4705.5179,N,01524.1900,E,1,05,3.1,418.0,M,42.5,M,,0000*58
$GPGGA,072205.000,4705.5179,N,01524.1899,E,1,05,3.1,418.0,M,42.5,M,,0000*50
$GPGGA,072205.200,4705.5179,N,01524.1898,E,1,05,3.1,418.0,M,42.5,M,,0000*53
$GPGGA,072205.400,4705.5179,N,01524.1898,E,1,05,3.1,418.0,M,42.5,M,,0000*55
$GPGGA,072205.600,4705.5178,N,01524.1897,E,1,05,3.1,417.9,M,42.5,M,,0000*5F
$GPGGA,072205.800,4705.5178,N,01524.1897,E,1,05,3.1,417.9,M,42.5,M,,0000*51
$GPGGA,072206.000,4705.5178,N,01524.1896,E,1,05,3.1,418.0,M,42.5,M,,0000*5D
$GPGGA,072206.200,4705.5178,N,01524.1896,E,1,05,3.1,418.0,M,42.5,M,,0000*5F
$GPGGA,072206.400,4705.5178,N,01524.1895,E,1,05,3.1,418.0,M,42.5,M,,0000*5A
$GPGGA,072206.600,4705.5178,N,01524.1894,E,1,05,3.1,418.0,M,42.5,M,,0000*59
$GPGGA,072206.800,4705.5177,N,01524.1894,E,1,05,3.1,418.0,M,42.5,M,,0000*58
$GPGGA,072207.000,4705.5177,N,01524.1893,E,1,05,3.1,418.0,M,42.5,M,,0000*56
$GPGGA,072207.200,4705.5177,N,01524.1893,E,1,05,3.1,418.0,M,42.5,M,,0000*54
$GPGGA,072207.400,4705.5177,N,01524.1892,E,1,05,3.1,418.1,M,42.5,M,,0000*52
$GPGGA,072207.600,4705.5177,N,01524.1892,E,1,05,3.1,418.1,M,42.5,M,,0000*50
$GPGGA,072207.800,4705.5177,N,01524.1892,E,1,06,3.1,418.1,M,42.5,M,,0000*5D
$GPGGA,072208.000,4705.5177,N,01524.1892,E,1,06,3.1,418.1,M,42.5,M,,0000*5A
$GPGGA,072208.200,4705.5177,N,01524.1892,E,1,06,3.1,418.1,M,42.5,M,,0000*58
$GPGGA,072208.400,4705.5177,N,01524.1892,E,1,06,3.1,418.1,M,42.5,M,,0000*5E
$GPGGA,072208.600,4705.5178,N,01524.1892,E,1,06,3.1,418.1,M,42.5,M,,0000*53
$GPGGA,072208.800,4705.5178,N,01524.1893,E,1,06,3.1,418.1,M,42.5,M,,0000*5C
$GPGGA,072209.000,4705.5178,N,01524.1893,E,1,06,3.1,418.1,M,42.5,M,,0000*55
$GPGGA,072209.200,4705.5179,N,01524.1894,E,1,06,3.1,418.1,M,42.5,M,,0000*51
$GPGGA,072209.400,4705.5179,N,01524.1895,E,1,06,3.1,418.0,M,42.5,M,,0000*57
$GPGGA,072209.600,4705.5180,N,01524.1896,E,1,06,3.1,418.0,M,42.5,M,,0000*50
$GPGGA,072209.800,4705.5180,N,01524.1896,E,1,06,3.1,418.0,M,42.5,M,,0000*5E
$GPGGA,072210.000,4705.5180,N,01524.1896,E,1,06,3.1,418.0,M,42.5,M,,0000*5E
$GPGGA,072210.200,4705.5180,N,01524.1896,E,1,06,3.1,418.0,M,42.5,M,,0000*5C
$GPGGA,072210.400,4705.5180,N,01524.1896,E,1,06,3.1,418.0,M,42.5,M,,0000*5A
$GPGGA,072210.600,4705.5180,N,01524.1896,E,1,06,3.1,418.0,M,42.5,M,,0000*58
$GPGGA,072210.800,4705.5180,N,01524.1896,E,1,06,3.1,418.0,M,42.5,M,,0000*56
$GPGGA,072211.000,4705.5180,N,01524.1896,E,1,06,3.1,418.0,M,42.5,M,,0000*5F
$GPGGA,072211.200,4705.5180,N,01524.1896,E,1,06,3.1,418.0,M,42.5,M,,0000*5D
$GPGGA,072211.400,4705.5180,N,01524.1896,E,1,06,3.1,418.0,M,42.5,M,,0000*5B
$GPGGA,072211.600,4705.5180,N,01524.1896,E,1,06,3.1,418.0,M,42.5,M,,0000*59
$GPGGA,072211.800,4705.5180,N,01524.1896,E,1,06,3.1,418.0,M,42.5,M,,0000*57
$GPGGA,072212.000,4705.5180,N,01524.1896,E,1,06,1.5,418.0,M,42.5,M,,0000*5A
$GPGGA,072212.200,4705.5180,N,01524.1896,E,1,06,1.5,418.0,M,42.5,M,,0000*58
$GPGGA,072212.400,4705.5180,N,01524.1896,E,1,06,1.5,418.0,M,42.5,M,,0000*5E
$GPGGA,072212.600,4705.5180,N,01524.1896,E,1,06,1.5,418.0,M,42.5,M,,0000*5C
$GPGGA,072212.800,4705.5180,N,01524.1896,E,1,06,1.5,418.0,M,42.5,M,,0000*52
$GPGGA,072213.000,4705.5180,N,01524.1896,E,1,06,1.5,418.0,M,42.5,M,,0000*5B
$GPGGA,072213.200,4705.5180,N,01524.1896,E,1,06,1.5,418.0,M,42.5,M,,0000*59
$GPGGA,072213.400,4705.5180,N,01524.1896,E,1,06,1.5,418.0,M,42.5,M,,0000*5F
$GPGGA,072213.600,4705.5180,N,01524.1896,E,1,06,1.5,418.0,M,42.5,M,,0000*5D
$GPGGA,072213.800,4705.5180,N,01524.1896,E,1,06,1.5,418.0,M,42.5,M,,0000*53
$GPGGA,072214.000,4705.5180,N,01524.1896,E,1,06,1.5,418.0,M,42.5,M,,0000*5C
$GPGGA,072214.200,4705.5180,N,01524.1896,E,1,06,1.5,418.0,M,42.5,M,,0000*5E
$GPGGA,072214.400,4705.5180,N,01524.1896,E,1,06,1.5,418.0,M,42.5,M,,0000*58
$GPGGA,072214.600,4705.5180,N,01524.1896,E,1,05,2.2,418.0,M,42.5,M,,0000*5D
$GPGGA,072214.800,4705.5178,N,01524.1897,E,1,05,2.2,417.8,M,42.5,M,,0000*52
$GPGGA,072215.000,4705.5176,N,01524.1899,E,1,05,2.2,417.7,M,42.5,M,,0000*54
$GPGGA,072215.200,4705.5175,N,01524.1900,E,1,05,2.2,417.8,M,42.5,M,,0000*5B
$GPGGA,072215.400,4705.5174,N,01524.1901,E,1,05,2.2,417.8,M,42.5,M,,0000*5D
$GPGGA,072215.600,4705.5173,N,01524.1901,E,1,05,2.2,417.8,M,42.5,M,,0000*58
$GPGGA,072215.800,4705.5173,N,01524.1901,E,1,05,2.2,417.8,M,42.5,M,,0000*56
$GPGGA,072216.000,4705.5173,N,01524.1901,E,1,05,2.2,417.8,M,42.5,M,,0000*5D
$GPGGA,072216.200,4705.5173,N,01524.1901,E,1,05,2.2,417.8,M,42.5,M,,0000*5F
$GPGGA,072216.400,4705.5173,N,01524.1901,E,1,05,2.2,417.8,M,42.5,M,,0000*59
$GPGGA,072216.600,4705.5173,N,01524.1901,E,1,05,2.2,417.8,M,42.5,M,,0000*5B
$GPGGA,072216.800,4705.5173,N,01524.1901,E,1,05,2.2,417.8,M,42.5,M,,0000*55
$GPGGA,072217.000,4705.5173,N,01524.1901,E,1,05,2.2,417.8,M,42.5,M,,0000*5C
$GPGGA,072217.200,4705.5173,N,01524.1901,E,1,05,2.2,417.8,M,42.5,M,,0000*5E
$GPGGA,072217.400,4705.5173,N,01524.1901,E,1,05,2.2,417.8,M,42.5,M,,0000*58
$GPGGA,072217.600,4705.5173,N,01524.1901,E,1,05,2.2,417.8,M,42.5,M,,0000*5A
$GPGGA,072217.800,4705.5173,N,01524.1901,E,1,05,2.2,417.8,M,42.5,M,,0000*54
$GPGGA,072218.000,4705.5173,N,01524.1901,E,1,05,2.2,417.8,M,42.5,M,,0000*53
$GPGGA,072218.200,4705.5171,N,01524.1903,E,1,05,2.2,417.7,M,42.5,M,,0000*5E
$GPGGA,072218.400,4705.5169,N,01524.1903,E,1,05,2.2,417.7,M,42.5,M,,0000*51
$GPGGA,072218.600,4705.5167,N,01524.1904,E,1,05,2.2,417.6,M,42.5,M,,0000*5B
$GPGGA,072218.800,4705.5165,N,01524.1904,E,1,05,2.2,417.5,M,42.5,M,,0000*54
$GPGGA,072219.000,4705.5164,N,01524.1903,E,1,05,2.2,417.4,M,42.5,M,,0000*5A
$GPGGA,072219.200,4705.5163,N,01524.1903,E,1,05,2.2,417.4,M,42.5,M,,0000*5F
$GPGGA,072219.400,4705.5162,N,01524.1903,E,1,05,2.2,417.3,M,42.5,M,,0000*5F
$GPGGA,072219.600,4705.5160,N,01524.1902,E,1,05,2.2,417.2,M,42.5,M,,0000*5F
$GPGGA,072219.800,4705.5159,N,01524.1901,E,1,05,2.2,417.2,M,42.5,M,,0000*58
$GPGGA,072220.000,4705.5158,N,01524.1901,E,1,05,2.2,417.2,M,42.5,M,,0000*5B
$GPGGA,072220.200,4705.5156,N,01524.1900,E,1,05,2.2,417.2,M,42.5,M,,0000*56
$GPGGA,072220.400,4705.5155,N,01524.1899,E,1,05,2.2,417.2,M,42.5,M,,0000*52
$GPGGA,072220.600,4705.5154,N,01524.1898,E,1,05,2.2,417.2,M,42.5,M,,0000*50
$GPGGA,072220.800,4705.5153,N,01524.1898,E,1,05,2.2,417.3,M,42.5,M,,0000*58
$GPGGA,072221.000,4705.5152,N,01524.1897,E,1,05,2.2,417.3,M,42.5,M,,0000*5F
$GPGGA,072221.200,4705.5152,N,01524.1897,E,1,05,2.2,417.4,M,42.5,M,,0000*5A
$GPGGA,072221.400,4705.5151,N,01524.1897,E,1,05,2.2,417.4,M,42.5,M,,0000*5F
$GPGGA,072221.600,4705.5150,N,01524.1897,E,1,05,2.2,417.5,M,42.5,M,,0000*5D
$GPGGA,072221.800,4705.5150,N,01524.1896,E,1,05,2.2,417.5,M,42.5,M,,0000*52
$GPGGA,072222.000,4705.5149,N,01524.1896,E,1,05,2.2,417.6,M,42.5,M,,0000*52
$GPGGA,072222.200,4705.5149,N,01524.1897,E,1,05,2.2,417.6,M,42.5,M,,0000*51
$GPGGA,072222.400,4705.5151,N,01524.1900,E,1,06,1.5,417.6,M,42.5,M,,0000*56
$GPGGA,072222.600,4705.5151,N,01524.1902,E,1,06,1.5,417.7,M,42.5,M,,0000*57
$GPGGA,072222.800,4705.5152,N,01524.1904,E,1,06,1.5,417.7,M,42.5,M,,0000*5C
$GPGGA,072223.000,4705.5153,N,01524.1906,E,1,06,1.5,417.7,M,42.5,M,,0000*56
$GPGGA,072223.200,4705.5154,N,01524.1909,E,1,06,1.5,417.7,M,42.5,M,,0000*5C
$GPGGA,072223.400,4705.5154,N,01524.1910,E,1,06,1.5,417.7,M,42.5,M,,0000*52
$GPGGA,072223.600,4705.5155,N,01524.1912,E,1,06,1.5,417.7,M,42.5,M,,0000*53
$GPGGA,072223.800,4705.5155,N,01524.1914,E,1,06,1.5,417.8,M,42.5,M,,0000*54
$GPGGA,072224.000,4705.5156,N,01524.1916,E,1,06,1.5,417.8,M,42.5,M,,0000*5A
$GPGGA,072224.200,4705.5156,N,01524.1918,E,1,06,1.5,417.8,M,42.5,M,,0000*56
$GPGGA,072224.400,4705.5156,N,01524.1918,E,1,06,1.5,417.8,M,42.5,M,,0000*50
$GPGGA,072224.600,4705.5156,N,01524.1918,E,1,06,1.5,417.8,M,42.5,M,,0000*52
$GPGGA,072224.800,4705.5156,N,01524.1918,E,1,06,1.5,417.8,M,42.5,M,,0000*5C
$GPGGA,072225.000,4705.5156,N,01524.1918,E,1,06,1.5,417.8,M,42.5,M,,0000*55
$GPGGA,072225.200,4705.5156,N,01524.1918,E,1,06,1.5,417.8,M,42.5,M,,0000*57
$GPGGA,072225.400,4705.5156,N,01524.1920,E,1,06,1.5,417.7,M,42.5,M,,0000*55
$GPGGA,072225.600,4705.5155,N,01524.1921,E,1,06,1.5,417.7,M,42.5,M,,0000*55
$GPGGA,072225.800,4705.5155,N,01524.1921,E,1,06,1.5,417.6,M,42.5,M,,0000*5A
$GPGGA,072226.000,4705.5154,N,01524.1922,E,1,06,1.5,417.6,M,42.5,M,,0000*53
$GPGGA,072226.200,4705.5154,N,01524.1922,E,1,06,1.5,417.6,M,42.5,M,,0000*51
$GPGGA,072226.400,4705.5154,N,01524.1923,E,1,06,1.5,417.6,M,42.5,M,,0000*56
$GPGGA,072226.600,4705.5154,N,01524.1924,E,1,06,1.5,417.6,M,42.5,M,,0000*53
$GPGGA,072226.800,4705.5154,N,01524.1925,E,1,06,1.5,417.6,M,42.5,M,,0000*5C
$GPGGA,072227.000,4705.5153,N,01524.1927,E,1,06,1.5,417.6,M,42.5,M,,0000*50
$GPGGA,072227.200,4705.5153,N,01524.1928,E,1,06,1.5,417.7,M,42.5,M,,0000*5C
$GPGGA,072227.400,4705.5153,N,01524.1929,E,1,06,1.5,417.7,M,42.5,M,,0000*5B
$GPGGA,072227.600,4705.5152,N,01524.1931,E,1,06,1.5,417.8,M,42.5,M,,0000*5E
$GPGGA,072227.800,4705.5152,N,01524.1932,E,1,06,1.5,417.8,M,42.5,M,,0000*53
$GPGGA,072228.000,4705.5152,N,01524.1933,E,1,06,1.5,417.9,M,42.5,M,,0000*54
$GPGGA,072228.200,4705.5152,N,01524.1935,E,1,06,1.5,418.0,M,42.5,M,,0000*56
$GPGGA,072228.400,4705.5152,N,01524.1936,E,1,06,1.5,418.1,M,42.5,M,,0000*52
$GPGGA,072228.600,4705.5152,N,01524.1938,E,1,06,1.5,418.2,M,42.5,M,,0000*5D
$GPGGA,072228.800,4705.5152,N,01524.1940,E,1,06,1.5,418.3,M,42.5,M,,0000*5D
$GPGGA,072229.000,4705.5152,N,01524.1941,E,1,06,1.5,418.4,M,42.5,M,,0000*52
$GPGGA,072229.200,4705.5151,N,01524.1942,E,1,06,1.5,418.5,M,42.5,M,,0000*51
$GPGGA,072229.400,4705.5151,N,01524.1942,E,1,06,1.5,418.5,M,42.5,M,,0000*57
$GPGGA,072229.600,4705.5151,N,01524.1942,E,1,06,1.5,418.5,M,42.5,M,,0000*55
$GPGGA,072229.800,4705.5151,N,01524.1942,E,1,06,1.5,418.5,M,42.5,M,,0000*5B
$GPGGA,072230.000,4705.5151,N,01524.1942,E,1,06,1.5,418.5,M,42.5,M,,0000*5B
$GPGGA,072230.200,4705.5151,N,01524.1942,E,1,06,1.5,418.5,M,42.5,M,,0000*59
$GPGGA,072230.400,4705.5151,N,01524.1942,E,1,06,1.5,418.5,M,42.5,M,,0000*5F
$GPGGA,072230.600,4705.5151,N,01524.1942,E,1,06,1.5,418.5,M,42.5,M,,0000*5D
$GPGGA,072230.800,4705.5151,N,01524.1942,E,1,06,1.5,418.5,M,42.5,M,,0000*53
$GPGGA,072231.000,4705.5151,N,01524.1942,E,1,06,1.5,418.5,M,42.5,M,,0000*5A
$GPGGA,072231.200,4705.5151,N,01524.1942,E,1,06,1.5,418.5,M,42.5,M,,0000*58
$GPGGA,072231.400,4705.5151,N,01524.1942,E,1,06,1.5,418.5,M,42.5,M,,0000*5E
$GPGGA,072231.600,4705.5150,N,01524.1944,E,1,06,1.5,419.0,M,42.5,M,,0000*5F
$GPGGA,072231.800,4705.5149,N,01524.1946,E,1,06,1.5,419.3,M,42.5,M,,0000*58
$GPGGA,072232.000,4705.5148,N,01524.1947,E,1,06,1.5,419.4,M,42.5,M,,0000*54
$GPGGA,072232.200,4705.5148,N,01524.1948,E,1,06,1.5,419.4,M,42.5,M,,0000*59
$GPGGA,072232.400,4705.5147,N,01524.1949,E,1,06,1.5,419.5,M,42.5,M,,0000*50
$GPGGA,072232.600,4705.5147,N,01524.1949,E,1,06,1.5,419.6,M,42.5,M,,0000*51
$GPGGA,072232.800,4705.5146,N,01524.1950,E,1,06,1.5,419.8,M,42.5,M,,0000*58
$GPGGA,072233.000,4705.5145,N,01524.1950,E,1,06,1.5,419.9,M,42.5,M,,0000*53
$GPGGA,072233.200,4705.5145,N,01524.1950,E,1,06,1.5,419.9,M,42.5,M,,0000*51
$GPGGA,072233.400,4705.5144,N,01524.1950,E,1,06,1.5,420.0,M,42.5,M,,0000*55
$GPGGA,072233.600,4705.5143,N,01524.1950,E,1,06,1.5,420.1,M,42.5,M,,0000*51
$GPGGA,072233.800,4705.5143,N,01524.1949,E,1,06,1.5,420.2,M,42.5,M,,0000*54
$GPGGA,072234.000,4705.5142,N,01524.1949,E,1,06,1.5,420.2,M,42.5,M,,0000*5A
$GPGGA,072234.200,4705.5141,N,01524.1949,E,1,06,1.5,420.4,M,42.5,M,,0000*5D
$GPGGA,072234.400,4705.5140,N,01524.1949,E,1,06,1.5,420.5,M,42.5,M,,0000*5B
$GPGGA,072234.600,4705.5139,N,01524.1949,E,1,06,1.5,420.6,M,42.5,M,,0000*54
$GPGGA,072234.800,4705.5138,N,01524.1948,E,1,06,1.5,420.7,M,42.5,M,,0000*5B
$GPGGA,072235.000,4705.5137,N,01524.1948,E,1,06,1.5,420.8,M,42.5,M,,0000*52
$GPGGA,072235.200,4705.5137,N,01524.1947,E,1,06,1.5,420.9,M,42.5,M,,0000*5E
$GPGGA,072235.400,4705.5136,N,01524.1947,E,1,06,1.5,421.0,M,42.5,M,,0000*51
$GPGGA,072235.600,4705.5135,N,01524.1947,E,1,06,1.5,421.1,M,42.5,M,,0000*51
$GPGGA,072235.800,4705.5135,N,01524.1947,E,1,06,1.5,421.1,M,42.5,M,,0000*5F
$GPGGA,072236.000,4705.5134,N,01524.1947,E,1,06,1.5,421.2,M,42.5,M,,0000*56
$GPGGA,072236.200,4705.5134,N,01524.1947,E,1,06,1.5,421.2,M,42.5,M,,0000*54
$GPGGA,072236.400,4705.5133,N,01524.1948,E,1,06,1.5,421.3,M,42.5,M,,0000*5B
$GPGGA,072236.600,4705.5133,N,01524.1948,E,1,06,1.5,421.4,M,42.5,M,,0000*5E
$GPGGA,072236.800,4705.5132,N,01524.1948,E,1,06,1.5,421.5,M,42.5,M,,0000*50
$GPGGA,072237.000,4705.5131,N,01524.1948,E,1,06,1.5,421.5,M,42.5,M,,0000*5A
$GPGGA,072237.200,4705.5130,N,01524.1947,E,1,06,1.5,421.6,M,42.5,M,,0000*55
$GPGGA,072237.400,4705.5130,N,01524.1947,E,1,06,1.5,421.7,M,42.5,M,,0000*52
$GPGGA,072237.600,4705.5129,N,01524.1947,E,1,06,1.5,421.8,M,42.5,M,,0000*57
$GPGGA,072237.800,4705.5128,N,01524.1947,E,1,06,1.5,421.9,M,42.5,M,,0000*59
$GPGGA,072238.000,4705.5127,N,01524.1946,E,1,06,1.5,422.0,M,42.5,M,,0000*5A
$GPGGA,072238.200,4705.5127,N,01524.1946,E,1,06,1.5,422.1,M,42.5,M,,0000*59
$GPGGA,072238.400,4705.5126,N,01524.1946,E,1,06,1.5,422.2,M,42.5,M,,0000*5D
$GPGGA,072238.600,4705.5125,N,01524.1946,E,1,06,1.5,422.2,M,42.5,M,,0000*5C
$GPGGA,072238.800,4705.5125,N,01524.1945,E,1,06,1.5,422.3,M,42.5,M,,0000*50
$GPGGA,072239.000,4705.5124,N,01524.1945,E,1,06,1.5,422.4,M,42.5,M,,0000*5F
$GPGGA,072239.200,4705.5123,N,01524.1944,E,1,06,1.5,422.5,M,42.5,M,,0000*5A
$GPGGA,072239.400,4705.5123,N,01524.1943,E,1,06,1.5,422.5,M,42.5,M,,0000*5B
$GPGGA,072239.600,4705.5122,N,01524.1943,E,1,06,1.5,422.6,M,42.5,M,,0000*5B
$GPGGA,072239.800,4705.5121,N,01524.1942,E,1,06,1.5,422.7,M,42.5,M,,0000*56
$GPGGA,072240.000,4705.5120,N,01524.1941,E,1,06,1.5,422.8,M,42.5,M,,0000*5D
$GPGGA,072240.200,4705.5120,N,01524.1940,E,1,06,1.5,422.8,M,42.5,M,,0000*5E
$GPGGA,072240.400,4705.5119,N,01524.1940,E,1,06,1.5,422.9,M,42.5,M,,0000*53
$GPGGA,072240.600,4705.5118,N,01524.1939,E,1,06,1.5,423.0,M,42.5,M,,0000*56
$GPGGA,072240.800,4705.5117,N,01524.1938,E,1,06,1.5,423.0,M,42.5,M,,0000*56
$GPGGA,072241.000,4705.5117,N,01524.1938,E,1,06,1.5,423.1,M,42.5,M,,0000*5E
$GPGGA,072241.200,4705.5116,N,01524.1937,E,1,06,1.5,423.2,M,42.5,M,,0000*51
$GPGGA,072241.400,4705.5116,N,01524.1937,E,1,06,1.5,423.2,M,42.5,M,,0000*57
$GPGGA,072241.600,4705.5115,N,01524.1937,E,1,06,1.5,423.3,M,42.5,M,,0000*57
$GPGGA,072241.800,4705.5115,N,01524.1937,E,1,06,1.5,423.4,M,42.5,M,,0000*5E
$GPGGA,072242.000,4705.5115,N,01524.1937,E,1,06,1.5,423.4,M,42.5,M,,0000*55
$GPGGA,072242.200,4705.5115,N,01524.1937,E,1,06,1.5,423.5,M,42.5,M,,0000*56
$GPGGA,072242.400,4705.5115,N,01524.1938,E,1,06,1.5,423.6,M,42.5,M,,0000*5C
$GPGGA,072242.600,4705.5115,N,01524.1940,E,1,06,1.5,423.7,M,42.5,M,,0000*50
$GPGGA,072242.800,4705.5116,N,01524.1941,E,1,06,1.5,423.8,M,42.5,M,,0000*53
$GPGGA,072243.000,4705.5117,N,01524.1943,E,1,06,1.5,423.8,M,42.5,M,,0000*59
$GPGGA,072243.200,4705.5117,N,01524.1945,E,1,06,1.5,423.9,M,42.5,M,,0000*5C
$GPGGA,072243.400,4705.5118,N,01524.1946,E,1,06,1.5,424.0,M,42.5,M,,0000*58
$GPGGA,072243.600,4705.5118,N,01524.1947,E,1,06,1.5,424.1,M,42.5,M,,0000*5A
$GPGGA,072243.800,4705.5119,N,01524.1948,E,1,06,1.5,424.2,M,42.5,M,,0000*59
$GPGGA,072244.000,4705.5119,N,01524.1949,E,1,06,1.5,424.3,M,42.5,M,,0000*56
$GPGGA,072244.200,4705.5119,N,01524.1950,E,1,06,1.5,424.3,M,42.5,M,,0000*5C
$GPGGA,072244.400,4705.5119,N,01524.1950,E,1,06,1.5,424.4,M,42.5,M,,0000*5D
$GPGGA,072244.600,4705.5119,N,01524.1950,E,1,06,1.5,424.4,M,42.5,M,,0000*5F
$GPGGA,072244.800,4705.5119,N,01524.1950,E,1,06,1.5,424.4,M,42.5,M,,0000*51
$GPGGA,072245.000,4705.5119,N,01524.1950,E,1,06,1.5,424.4,M,42.5,M,,0000*58
$GPGGA,072245.200,4705.5119,N,01524.1950,E,1,06,1.5,424.4,M,42.5,M,,0000*5A
$GPGGA,072245.400,4705.5119,N,01524.1950,E,1,06,1.5,424.4,M,42.5,M,,0000*5C
$GPGGA,072245.600,4705.5119,N,01524.1950,E,1,06,1.5,424.4,M,42.5,M,,0000*5E
$GPGGA,072245.800,4705.5119,N,01524.1950,E,1,06,1.5,424.4,M,42.5,M,,0000*50
$GPGGA,072246.000,4705.5119,N,01524.1950,E,1,06,1.5,424.4,M,42.5,M,,0000*5B
$GPGGA,072246.200,4705.5119,N,01524.1950,E,1,06,1.5,424.4,M,42.5,M,,0000*59
$GPGGA,072246.400,4705.5119,N,01524.1950,E,1,06,1.5,424.4,M,42.5,M,,0000*5F
$GPGGA,072246.600,4705.5119,N,01524.1950,E,1,06,1.5,424.4,M,42.5,M,,0000*5D
$GPGGA,072246.800,4705.5119,N,01524.1950,E,1,06,1.5,424.4,M,42.5,M,,0000*53
$GPGGA,072247.000,4705.5119,N,01524.1950,E,1,06,1.5,424.4,M,42.5,M,,0000*5A
$GPGGA,072247.200,4705.5119,N,01524.1950,E,1,06,1.5,424.4,M,42.5,M,,0000*58
$GPGGA,072247.400,4705.5119,N,01524.1950,E,1,06,1.5,424.4,M,42.5,M,,0000*5E
$GPGGA,072247.600,4705.5119,N,01524.1950,E,1,06,1.5,424.4,M,42.5,M,,0000*5C
$GPGGA,072247.800,4705.5119,N,01524.1950,E,1,06,1.5,424.4,M,42.5,M,,0000*52
$GPGGA,072248.000,4705.5119,N,01524.1950,E,1,06,1.5,424.4,M,42.5,M,,0000*55
$GPGGA,072248.200,4705.5119,N,01524.1950,E,1,06,1.5,424.4,M,42.5,M,,0000*57
$GPGGA,072248.400,4705.5119,N,01524.1950,E,1,06,1.5,424.4,M,42.5,M,,0000*51
$GPGGA,072248.600,4705.5119,N,01524.1950,E,1,06,1.5,424.4,M,42.5,M,,0000*53
$GPGGA,072248.800,4705.5119,N,01524.1950,E,1,06,1.5,424.4,M,42.5,M,,0000*5D
$GPGGA,072249.000,4705.5119,N,01524.1950,E,1,06,1.5,424.4,M,42.5,M,,0000*54
$GPGGA,072249.200,4705.5119,N,01524.1950,E,1,06,1.5,424.4,M,42.5,M,,0000*56
$GPGGA,072249.400,4705.5120,N,01524.1950,E,1,06,1.5,425.4,M,42.5,M,,0000*5B
$GPGGA,072249.600,4705.5120,N,01524.1950,E,1,06,1.5,425.9,M,42.5,M,,0000*54
$GPGGA,072249.800,4705.5121,N,01524.1951,E,1,06,1.5,426.2,M,42.5,M,,0000*52
$GPGGA,072250.000,4705.5121,N,01524.1951,E,1,06,1.5,426.2,M,42.5,M,,0000*52
$GPGGA,072250.200,4705.5121,N,01524.1951,E,1,06,1.5,426.2,M,42.5,M,,0000*50
$GPGGA,072250.400,4705.5121,N,01524.1951,E,1,06,1.5,426.2,M,42.5,M,,0000*56
$GPGGA,072250.600,4705.5121,N,01524.1951,E,1,06,1.5,426.2,M,42.5,M,,0000*54
$GPGGA,072250.800,4705.5122,N,01524.1951,E,1,06,1.5,426.7,M,42.5,M,,0000*5C
$GPGGA,072251.000,4705.5123,N,01524.1952,E,1,06,1.5,426.9,M,42.5,M,,0000*59
$GPGGA,072251.200,4705.5123,N,01524.1953,E,1,06,1.5,427.1,M,42.5,M,,0000*53
$GPGGA,072251.400,4705.5124,N,01524.1954,E,1,06,1.5,427.2,M,42.5,M,,0000*56
$GPGGA,072251.600,4705.5126,N,01524.1955,E,1,06,1.5,427.2,M,42.5,M,,0000*57
$GPGGA,072251.800,4705.5127,N,01524.1957,E,1,06,1.5,427.3,M,42.5,M,,0000*5B
$GPGGA,072252.000,4705.5128,N,01524.1958,E,1,06,1.5,427.4,M,42.5,M,,0000*57
$GPGGA,072252.200,4705.5129,N,01524.1959,E,1,06,1.5,427.5,M,42.5,M,,0000*54
$GPGGA,072252.400,4705.5130,N,01524.1960,E,1,06,1.5,427.5,M,42.5,M,,0000*50
$GPGGA,072252.600,4705.5130,N,01524.1962,E,1,06,1.5,427.6,M,42.5,M,,0000*53
$GPGGA,072252.800,4705.5130,N,01524.1962,E,1,06,1.5,427.6,M,42.5,M,,0000*5D
$GPGGA,072253.000,4705.5129,N,01524.1962,E,1,06,1.5,427.7,M,42.5,M,,0000*5D
$GPGGA,072253.200,4705.5128,N,01524.1962,E,1,06,1.5,427.7,M,42.5,M,,0000*5E
$GPGGA,072253.400,4705.5128,N,01524.1962,E,1,06,1.5,427.8,M,42.5,M,,0000*57
$GPGGA,072253.600,4705.5128,N,01524.1963,E,1,06,1.5,427.9,M,42.5,M,,0000*55
$GPGGA,072253.800,4705.5128,N,01524.1964,E,1,06,1.5,427.9,M,42.5,M,,0000*5C
$GPGGA,072254.000,4705.5128,N,01524.1964,E,1,05,1.6,427.9,M,42.5,M,,0000*53
$GPGGA,072254.200,4705.5128,N,01524.1964,E,1,05,1.6,427.9,M,42.5,M,,0000*51
$GPGGA,072254.400,4705.5128,N,01524.1964,E,1,05,1.6,427.9,M,42.5,M,,0000*57
$GPGGA,072254.600,4705.5128,N,01524.1964,E,1,05,1.6,427.9,M,42.5,M,,0000*55
$GPGGA,072254.800,4705.5128,N,01524.1964,E,1,05,1.6,427.9,M,42.5,M,,0000*5B
$GPGGA,072255.000,4705.5128,N,01524.1964,E,1,05,1.6,427.9,M,42.5,M,,0000*52
$GPGGA,072255.200,4705.5128,N,01524.1964,E,1,05,1.6,427.9,M,42.5,M,,0000*50
$GPGGA,072255.400,4705.5128,N,01524.1964,E,1,05,1.6,427.9,M,42.5,M,,0000*56
$GPGGA,072255.600,4705.5128,N,01524.1964,E,1,05,1.6,427.9,M,42.5,M,,0000*54
$GPGGA,072255.800,4705.5128,N,01524.1964,E,1,05,1.6,427.9,M,42.5,M,,0000*5A
$GPGGA,072256.000,4705.5127,N,01524.1965,E,1,05,1.6,428.3,M,42.5,M,,0000*5A
$GPGGA,072256.200,4705.5127,N,01524.1967,E,1,05,1.6,428.5,M,42.5,M,,0000*5C
$GPGGA,072256.400,4705.5127,N,01524.1967,E,1,05,1.6,428.5,M,42.5,M,,0000*5A
$GPGGA,072256.600,4705.5127,N,01524.1967,E,1,05,1.6,428.5,M,42.5,M,,0000*58
$GPGGA,072256.800,4705.5127,N,01524.1967,E,1,05,1.6,428.5,M,42.5,M,,0000*56
$GPGGA,072257.000,4705.5127,N,01524.1967,E,1,05,1.6,428.5,M,42.5,M,,0000*5F
$GPGGA,072257.200,4705.5127,N,01524.1967,E,1,05,1.6,428.5,M,42.5,M,,0000*5D
$GPGGA,072257.400,4705.5127,N,01524.1967,E,1,05,1.6,428.5,M,42.5,M,,0000*5B
$GPGGA,072257.600,4705.5127,N,01524.1967,E,1,05,1.6,428.5,M,42.5,M,,0000*59
$GPGGA,072257.800,4705.5127,N,01524.1967,E,1,05,1.6,428.5,M,42.5,M,,0000*57
$GPGGA,072258.000,4705.5127,N,01524.1967,E,1,05,1.6,428.5,M,42.5,M,,0000*50
$GPGGA,072258.200,4705.5127,N,01524.1967,E,1,05,1.6,428.5,M,42.5,M,,0000*52
$GPGGA,072258.400,4705.5127,N,01524.1967,E,1,05,1.6,428.5,M,42.5,M,,0000*54
$GPGGA,072258.600,4705.5127,N,01524.1967,E,1,05,1.6,428.5,M,42.5,M,,0000*56
$GPGGA,072258.800,4705.5127,N,01524.1967,E,1,05,1.6,428.5,M,42.5,M,,0000*58
$GPGGA,072259.000,4705.5127,N,01524.1967,E,1,05,1.6,428.5,M,42.5,M,,0000*51
$GPGGA,072259.200,4705.5127,N,01524.1967,E,1,05,1.6,428.5,M,42.5,M,,0000*53
$GPGGA,072259.400,4705.5127,N,01524.1967,E,1,05,1.6,428.5,M,42.5,M,,0000*55
$GPGGA,072259.600,4705.5127,N,01524.1967,E,1,05,1.6,428.5,M,42.5,M,,0000*57
$GPGGA,072259.800,4705.5127,N,01524.1967,E,1,05,1.6,428.5,M,42.5,M,,0000*59
$GPGGA,072300.000,4705.5127,N,01524.1967,E,1,05,1.6,428.5,M,42.5,M,,0000*5C
$GPGGA,072300.200,4705.5127,N,01524.1967,E,1,05,1.6,428.5,M,42.5,M,,0000*5E
$GPGGA,072300.400,4705.5127,N,01524.1967,E,1,05,1.6,428.5,M,42.5,M,,0000*58
$GPGGA,072300.600,4705.5127,N,01524.1967,E,1,05,1.6,428.5,M,42.5,M,,0000*5A
$GPGGA,072300.800,4705.5127,N,01524.1967,E,1,05,1.6,428.5,M,42.5,M,,0000*54
$GPGGA,072301.000,4705.5127,N,01524.1967,E,1,05,1.6,428.5,M,42.5,M,,0000*5D
$GPGGA,072301.200,4705.5127,N,01524.1967,E,1,05,1.6,428.5,M,42.5,M,,0000*5F
$GPGGA,072301.400,4705.5126,N,01524.1968,E,1,05,1.6,428.7,M,42.5,M,,0000*55
$GPGGA,072301.600,4705.5126,N,01524.1967,E,1,06,1.5,428.3,M,42.5,M,,0000*5C
$GPGGA,072301.800,4705.5126,N,01524.1966,E,1,06,1.5,428.0,M,42.5,M,,0000*50
$GPGGA,072302.000,4705.5125,N,01524.1966,E,1,06,1.6,428.3,M,42.5,M,,0000*58
$GPGGA,072302.200,4705.5125,N,01524.1967,E,1,06,1.6,428.6,M,42.5,M,,0000*5E
$GPGGA,072302.400,4705.5124,N,01524.1967,E,1,06,1.6,428.9,M,42.5,M,,0000*56
$GPGGA,072302.600,4705.5124,N,01524.1967,E,1,06,1.6,429.1,M,42.5,M,,0000*5D
$GPGGA,072302.800,4705.5123,N,01524.1967,E,1,06,1.6,429.3,M,42.5,M,,0000*56
$GPGGA,072303.000,4705.5123,N,01524.1967,E,1,06,1.6,429.5,M,42.5,M,,0000*59
$GPGGA,072303.200,4705.5122,N,01524.1966,E,1,06,1.5,429.6,M,42.5,M,,0000*5B
$GPGGA,072303.400,4705.5122,N,01524.1966,E,1,06,1.5,429.7,M,42.5,M,,0000*5C
$GPGGA,072303.600,4705.5121,N,01524.1965,E,1,06,1.5,429.8,M,42.5,M,,0000*51
$GPGGA,072303.800,4705.5121,N,01524.1964,E,1,06,1.5,429.8,M,42.5,M,,0000*5E
$GPGGA,072304.000,4705.5120,N,01524.1963,E,1,06,1.5,429.9,M,42.5,M,,0000*56
$GPGGA,072304.200,4705.5119,N,01524.1962,E,1,06,1.5,429.9,M,42.5,M,,0000*5F
$GPGGA,072304.400,4705.5119,N,01524.1962,E,1,06,1.5,429.9,M,42.5,M,,0000*59
$GPGGA,072304.600,4705.5119,N,01524.1962,E,1,06,1.5,429.9,M,42.5,M,,0000*5B
$GPGGA,072304.800,4705.5119,N,01524.1962,E,1,06,1.5,429.9,M,42.5,M,,0000*55
$GPGGA,072305.000,4705.5119,N,01524.1962,E,1,06,1.5,429.9,M,42.5,M,,0000*5C
$GPGGA,072305.200,4705.5119,N,01524.1962,E,1,06,1.5,429.9,M,42.5,M,,0000*5E
$GPGGA,072305.400,4705.5119,N,01524.1962,E,1,06,1.5,429.9,M,42.5,M,,0000*58
$GPGGA,072305.600,4705.5119,N,01524.1962,E,1,06,1.5,429.9,M,42.5,M,,0000*5A
$GPGGA,072305.800,4705.5119,N,01524.1962,E,1,06,1.5,429.9,M,42.5,M,,0000*54
$GPGGA,072306.000,4705.5119,N,01524.1962,E,1,06,1.5,429.9,M,42.5,M,,0000*5F
$GPGGA,072306.200,4705.5119,N,01524.1962,E,1,06,1.5,429.9,M,42.5,M,,0000*5D
$GPGGA,072306.400,4705.5119,N,01524.1962,E,1,06,1.5,429.9,M,42.5,M,,0000*5B
$GPGGA,072306.600,4705.5119,N,01524.1962,E,1,06,1.5,429.9,M,42.5,M,,0000*59
$GPGGA,072306.800,4705.5119,N,01524.1962,E,1,06,1.5,429.9,M,42.5,M,,0000*57
$GPGGA,072307.000,4705.5119,N,01524.1962,E,1,06,1.5,429.9,M,42.5,M,,0000*5E
$GPGGA,072307.200,4705.5119,N,01524.1962,E,1,06,1.5,429.9,M,42.5,M,,0000*5C
$GPGGA,072307.400,4705.5119,N,01524.1962,E,1,06,1.5,429.9,M,42.5,M,,0000*5A
$GPGGA,072307.600,4705.5119,N,01524.1962,E,1,06,1.5,429.9,M,42.5,M,,0000*58
$GPGGA,072307.800,4705.5119,N,01524.1962,E,1,06,1.5,429.9,M,42.5,M,,0000*56
$GPGGA,072308.000,4705.5119,N,01524.1962,E,1,06,1.5,429.9,M,42.5,M,,0000*51
$GPGGA,072308.200,4705.5119,N,01524.1962,E,1,06,1.5,429.9,M,42.5,M,,0000*53
$GPGGA,072308.400,4705.5119,N,01524.1962,E,1,06,1.5,429.9,M,42.5,M,,0000*55
$GPGGA,072308.600,4705.5119,N,01524.1962,E,1,06,1.5,429.9,M,42.5,M,,0000*57
$GPGGA,072308.800,4705.5119,N,01524.1962,E,1,06,1.5,429.9,M,42.5,M,,0000*59
$GPGGA,072309.000,4705.5119,N,01524.1962,E,1,06,1.5,429.9,M,42.5,M,,0000*50
$GPGGA,072309.200,4705.5119,N,01524.1962,E,1,06,1.5,429.9,M,42.5,M,,0000*52
$GPGGA,072309.400,4705.5119,N,01524.1962,E,1,06,1.5,429.9,M,42.5,M,,0000*54
$GPGGA,072309.600,4705.5119,N,01524.1962,E,1,06,1.5,429.9,M,42.5,M,,0000*56
$GPGGA,072309.800,4705.5119,N,01524.1962,E,1,06,1.5,429.9,M,42.5,M,,0000*58
$GPGGA,072310.000,4705.5119,N,01524.1962,E,1,06,1.5,429.9,M,42.5,M,,0000*58
$GPGGA,072310.200,4705.5119,N,01524.1962,E,1,06,1.5,429.9,M,42.5,M,,0000*5A
$GPGGA,072310.400,4705.5119,N,01524.1962,E,1,06,1.5,429.9,M,42.5,M,,0000*5C
$GPGGA,072310.600,4705.5119,N,01524.1962,E,1,06,1.5,429.9,M,42.5,M,,0000*5E
$GPGGA,072310.800,4705.5119,N,01524.1962,E,1,06,1.5,429.9,M,42.5,M,,0000*50
$GPGGA,072311.000,4705.5119,N,01524.1962,E,1,06,1.5,429.9,M,42.5,M,,0000*59
$GPGGA,072311.200,4705.5119,N,01524.1962,E,1,06,1.5,429.9,M,42.5,M,,0000*5B
$GPGGA,072311.400,4705.5119,N,01524.1962,E,1,06,1.5,429.9,M,42.5,M,,0000*5D
$GPGGA,072311.600,4705.5119,N,01524.1962,E,1,06,1.5,429.9,M,42.5,M,,0000*5F
